rid,country,location_name,latitude,longitude,timezone,last_updated,temperature_celsius,temperature_fahrenheit,condition_label,wind_kph,humidity,cloud,feels_like_celsius,feels_like_fahrenheit,air_quality_Ozone,sunrise,sunset,moonrise,moonset
203.205.158.63-10.42.0.151-80-34810-6,Afghanistan,Kabul,34.52,69.18,Asia/Kabul,29-08-23 14:00,28.8,83.8,0,11.5,19,0,26.7,80.1,130.2,5:24 AM,6:24 PM,5:39 PM,2:48 AM
220.243.219.55-10.42.0.42-80-37086-6,Albania,Tirana,41.33,19.82,Europe/Tirane,29-08-23 11:30,27,80.6,0,6.1,54,75,28,82.3,104.4,6:04 AM,7:19 PM,6:50 PM,3:25 AM
172.217.12.170-10.42.0.42-443-40096-6,Algeria,Algiers,36.76,3.05,Africa/Algiers,29-08-23 10:30,28,82.4,1,13,30,25,27.4,81.3,16.6,6:16 AM,7:21 PM,6:46 PM,3:50 AM
10.42.0.211-23.52.146.64-33393-443-6,Andorra,Andorra La Vella,42.5,1.52,Europe/Andorra,29-08-23 11:30,10.2,50.4,0,9.7,51,6,8.9,48,68,7:16 AM,8:34 PM,8:08 PM,4:38 AM
172.217.10.67-10.42.0.151-443-52315-6,Angola,Luanda,-8.84,13.23,Africa/Luanda,29-08-23 10:30,25,77,0,3.6,69,75,26.9,80.4,147.3,6:11 AM,6:06 PM,4:43 PM,4:41 AM
10.42.0.151-123.125.115.190-35010-80-6,Antigua and Barbuda,Saint John's,17.12,-61.85,America/Antigua,29-08-23 5:30,29,84.2,0,15.1,79,75,34,93.2,16.6,5:53 AM,6:23 PM,5:36 PM,4:09 AM
174.129.31.175-10.42.0.211-443-41085-6,Argentina,Buenos Aires,-34.59,-58.67,America/Argentina/Buenos_Aires,29-08-23 6:30,9,48.2,0,11.2,71,0,8,46.4,18.8,7:18 AM,6:34 PM,4:57 PM,6:32 AM
172.217.11.14-10.42.0.211-443-48510-6,Armenia,Yerevan,40.18,44.51,Asia/Yerevan,29-08-23 13:30,31,87.8,0,9,26,25,29,84.2,121.6,6:26 AM,7:39 PM,7:05 PM,3:45 AM
10.42.0.151-10.42.0.1-63501-53-17,Australia,Canberra,-35.28,149.22,Australia/Sydney,29-08-23 19:30,13,55.4,1,15.1,62,0,12.7,54.8,44,6:27 AM,5:42 PM,3:19 PM,5:17 AM
10.42.0.211-23.205.16.85-52452-80-6,Austria,Vienna,48.2,16.37,Europe/Vienna,29-08-23 11:30,16,60.8,1,19.1,82,75,16,60.8,30,6:07 AM,7:43 PM,7:27 PM,3:11 AM
172.217.10.106-10.42.0.151-443-33506-6,Azerbaijan,Baku,40.4,49.88,Asia/Baku,29-08-23 13:30,31,87.8,1,22,36,0,32.7,90.8,101.6,6:04 AM,7:18 PM,6:44 PM,3:21 AM
172.217.10.14-10.42.0.42-443-58558-6,Bahamas,Nassau,25.08,-77.35,America/Nassau,29-08-23 5:30,29.8,85.6,1,14.4,80,8,36.6,97.9,29.3,6:49 AM,7:32 PM,6:53 PM,4:58 AM
172.217.12.174-10.42.0.151-443-43434-6,Bahrain,Manama,26.24,50.58,Asia/Bahrain,29-08-23 12:30,38,100.4,1,13,54,0,47.8,118.1,254.6,5:16 AM,6:01 PM,5:07 PM,2:58 AM
172.217.7.163-10.42.0.211-443-40800-6,Bangladesh,Dhaka,23.72,90.41,Asia/Dhaka,29-08-23 15:30,34,93.2,1,5.4,52,70,39.6,103.3,45.8,5:39 AM,6:19 PM,5:18 PM,3:17 AM
239.255.255.250-10.42.0.1-1900-33895-17,Barbados,Bridgetown,13.1,-59.62,America/Barbados,29-08-23 5:30,27,80.6,1,25.9,89,25,30,86,17.7,5:47 AM,6:11 PM,5:20 PM,4:07 AM
10.42.0.211-123.59.190.251-45015-80-6,Belarus,Minsk,53.9,27.57,Europe/Minsk,29-08-23 12:30,22,71.6,0,11.2,61,0,24.4,76,94.4,6:12 AM,8:08 PM,8:06 PM,2:51 AM
10.42.0.211-10.42.0.1-63824-53-17,Belgium,Brussels,50.83,4.33,Europe/Brussels,29-08-23 11:30,16,60.8,1,6.1,82,25,16,60.8,40.8,6:51 AM,8:35 PM,8:26 PM,3:49 AM
172.217.10.42-10.42.0.151-443-56540-6,Belize,Belmopan,17.25,-88.77,America/Belize,29-08-23 3:30,23.6,74.5,0,6.8,95,70,26.1,79,6.6,5:41 AM,6:11 PM,5:28 PM,4:01 AM
205.185.216.42-10.42.0.211-80-49294-6,Benin,Porto-Novo,6.48,2.62,Africa/Porto-Novo,29-08-23 10:30,28,82.4,0,16.9,84,50,31,87.8,20.6,6:43 AM,6:58 PM,5:52 PM,4:59 AM
172.217.12.206-10.42.0.211-443-57217-6,Bhutan,Thimphu,27.48,89.6,Asia/Thimphu,29-08-23 15:30,17.1,62.8,0,8.6,75,83,17.1,62.8,47.2,5:39 AM,6:26 PM,5:29 PM,3:11 AM
10.42.0.151-10.42.0.1-50987-53-17,Bolivia,Sucre,-19.04,-65.26,America/La_Paz,29-08-23 5:30,10.8,51.4,0,3.6,38,0,11.2,52.2,41.5,6:31 AM,6:13 PM,4:55 PM,5:27 AM
172.217.10.74-10.42.0.151-443-33086-6,Bosnia and Herzegovina,Sarajevo,43.85,18.38,Europe/Sarajevo,29-08-23 11:30,23,73.4,0,29.9,47,50,24.6,76.3,85.8,6:06 AM,7:28 PM,7:03 PM,3:22 AM
10.42.0.151-10.42.0.1-26896-53-17,Botswana,Gaborone,-24.65,25.91,Africa/Gaborone,29-08-23 11:30,18.4,65.1,1,15.1,35,6,18.4,65.1,85.8,6:31 AM,6:04 PM,4:22 PM,5:20 AM
10.42.0.211-52.94.232.32-35482-443-6,Brazil,Bras,-2.08,-58.17,America/Manaus,29-08-23 5:30,23.8,74.8,1,5,54,8,25.2,77.4,19.5,5:52 AM,5:56 PM,4:51 PM,4:27 AM
203.205.147.229-10.42.0.151-80-50842-6,Brunei Darussalam,Bandar Seri Begawan,4.88,114.93,Asia/Brunei,29-08-23 17:30,31,87.8,1,11.2,79,75,37.4,99.3,28.6,6:15 AM,6:28 PM,5:02 PM,4:12 AM
10.42.0.211-23.203.49.224-57177-443-6,Bulgaria,Sofia,42.68,23.32,Europe/Sofia,29-08-23 12:30,28,82.4,1,15.1,40,25,27.2,81,101.6,6:48 AM,8:07 PM,7:40 PM,4:05 AM
180.149.138.210-10.42.0.211-80-37279-6,Burkina Faso,Ouagadougou,12.37,-1.52,Africa/Ouagadougou,29-08-23 9:30,28,82.4,1,6.8,79,25,30.2,86.3,18.2,5:55 AM,6:18 PM,5:18 PM,4:05 AM
172.217.12.206-10.42.0.211-443-60291-6,Burundi,Bujumbura,-3.38,29.36,Africa/Bujumbura,29-08-23 11:30,28.9,84,1,16.9,34,25,28.2,82.8,64.4,6:03 AM,6:05 PM,4:44 PM,4:24 AM
10.42.0.211-10.42.0.1-57260-53-17,Madagascar,Ivory,-24.37,46.45,Indian/Antananarivo,29-08-23 12:30,22.9,73.2,1,10.1,35,0,24,75.2,63.7,6:09 AM,5:42 PM,3:57 PM,4:54 AM
10.42.0.42-103.235.46.212-48455-80-6,Cape Verde,Praia,14.93,-23.51,Atlantic/Cape_Verde,29-08-23 8:30,28,82.4,0,15.1,74,25,31.6,88.8,52.2,6:21 AM,6:48 PM,5:54 PM,4:32 AM
174.36.210.49-10.42.0.211-443-54136-6,Cambodia,Phnom Penh,11.55,104.92,Asia/Phnom_Penh,29-08-23 16:30,30,86,1,11.2,75,75,30.3,86.5,24,5:50 AM,6:12 PM,4:55 PM,3:42 AM
202.77.129.230-10.42.0.211-80-37702-6,Cameroon,Bafoussam,5.47,10.42,Africa/Douala,29-08-23 10:30,23.9,75,0,3.6,78,89,25.8,78.4,9.1,6:12 AM,6:26 PM,5:18 PM,4:28 AM
10.42.0.211-10.42.0.1-3332-53-17,Canada,Ottawa,45.42,-75.7,America/Toronto,29-08-23 5:30,11,51.8,1,6.8,100,0,11.4,52.4,17.7,6:20 AM,7:46 PM,7:33 PM,3:54 AM
10.42.0.211-50.18.174.184-55221-443-6,Central African Republic,Bangui,4.37,18.58,Africa/Bangui,29-08-23 10:30,26.3,79.3,1,3.6,80,39,29,84.2,1,5:41 AM,5:53 PM,4:42 PM,3:56 AM
172.217.12.174-10.42.0.151-443-49488-6,Chad,N'djamena,12.11,15.05,Africa/Douala,29-08-23 10:30,32,89.6,1,19.1,67,0,38.7,101.6,20.2,5:49 AM,6:12 PM,5:09 PM,3:56 AM
10.42.0.1-10.42.0.42-53-20213-17,Chile,Santiago,-33.45,-70.67,America/Santiago,29-08-23 5:30,5,41,0,6.1,87,0,3.6,38.4,0,7:05 AM,6:23 PM,4:50 PM,6:19 AM
10.42.0.211-106.11.94.27-40316-443-6,China,Beijing,39.93,116.39,Asia/Shanghai,29-08-23 17:30,28,82.4,1,6.8,37,0,28.2,82.7,140.2,5:39 AM,6:52 PM,6:09 PM,2:41 AM
172.217.6.234-10.42.0.42-443-53609-6,Bulgaria,Bogot,43.32,24.7,Europe/Sofia,29-08-23 12:30,36.4,97.5,1,11.9,17,4,35,95,97.3,6:41 AM,8:02 PM,7:36 PM,3:57 AM
10.42.0.211-52.179.153.195-40898-443-6,Comoros,Moroni,-11.7,43.24,Indian/Comoro,29-08-23 12:30,24,75.2,0,24.1,83,75,26,78.8,67.2,6:12 AM,6:04 PM,4:33 PM,4:42 AM
10.42.0.151-10.42.0.1-48010-53-17,Congo,Brazzaville,-4.26,15.28,Africa/Brazzaville,29-08-23 10:30,31.1,88,1,9,51,62,33.4,92.1,38.6,5:59 AM,6:00 PM,4:42 PM,4:25 AM
10.42.0.151-123.125.115.164-34601-443-6,Costa Rica,San Juan,9.97,-84.08,America/Costa_Rica,29-08-23 3:30,21,69.8,0,6.1,94,0,21,69.8,0,5:28 AM,5:47 PM,4:57 PM,3:55 AM
172.217.11.2-10.42.0.211-443-34918-6,Croatia,Zagreb,45.8,16,Europe/Zagreb,29-08-23 11:30,23,73.4,1,3.6,69,25,24.8,76.7,83.7,6:13 AM,7:41 PM,7:19 PM,3:24 AM
174.35.73.135-10.42.0.211-80-41771-6,Cuba,Havana,23.13,-82.36,America/Havana,29-08-23 5:30,26,78.8,1,15.1,100,75,28.9,84,24.3,7:11 AM,7:50 PM,7:11 PM,5:23 AM
10.42.0.151-10.42.0.1-44907-53-17,Cyprus,Nicosia,35.17,33.37,Asia/Nicosia,29-08-23 12:30,35,95,1,11.2,35,25,37.1,98.8,110.2,6:16 AM,7:18 PM,6:38 PM,3:47 AM
169.47.42.121-10.42.0.211-5222-55769-6,Czech Republic,Prague,50.08,14.47,Europe/Prague,29-08-23 11:30,13,55.4,1,9,94,100,12.5,54.5,53.6,6:12 AM,7:54 PM,7:42 PM,3:10 AM
180.149.134.221-10.42.0.42-80-59911-6,Democratic Republic of Congo,Kinshasa,-4.3,15.3,Africa/Brazzaville,29-08-23 10:30,31.1,88,1,9,50,60,33.4,92.1,38.6,5:59 AM,6:00 PM,4:42 PM,4:25 AM
216.58.219.195-10.42.0.42-443-38330-6,Denmark,Copenhagen,55.67,12.58,Europe/Copenhagen,29-08-23 11:30,17,62.6,1,6.8,72,0,17,62.6,61.5,6:08 AM,8:12 PM,8:16 PM,2:42 AM
220.243.219.55-10.42.0.211-80-58239-6,Djibouti,Djibouti,11.6,43.15,Africa/Djibouti,29-08-23 12:30,42,107.6,1,15.1,29,25,59.1,138.3,61.5,5:57 AM,6:19 PM,5:12 PM,4:00 AM
10.42.0.151-10.42.0.1-61678-53-17,Dominica,Roseau,15.3,-61.4,America/Dominica,29-08-23 5:30,28.2,82.8,1,19.8,79,62,32.6,90.7,18.8,5:53 AM,6:20 PM,5:31 PM,4:10 AM
10.42.0.211-59.38.112.48-59520-443-6,Dominican Republic,Santo Domingo,18.47,-69.9,America/Santo_Domingo,29-08-23 5:30,26,78.8,0,6.8,94,25,30.6,87.1,0,6:24 AM,6:56 PM,6:11 PM,4:40 AM
172.217.11.14-10.42.0.211-443-33680-6,Ecuador,Quito,-0.22,-78.5,America/Guayaquil,29-08-23 4:30,8.9,48,1,6.8,62,6,8,46.4,0,6:12 AM,6:18 PM,5:19 PM,4:48 AM
10.42.0.151-98.139.199.204-36905-443-6,Egypt,Cairo,30.05,31.25,Africa/Cairo,29-08-23 12:30,31,87.8,1,19.1,46,50,34.3,93.7,44,6:30 AM,7:22 PM,6:35 PM,4:10 AM
192.229.173.173-10.42.0.211-443-44347-6,El Salvador,San Salvador,13.71,-89.2,America/El_Salvador,29-08-23 3:30,26,78.8,1,6.8,94,50,30.2,86.4,3.9,5:45 AM,6:10 PM,5:24 PM,4:09 AM
10.42.0.151-64.71.142.124-36135-443-6,Equatorial Guinea,Malabo,3.75,8.78,Africa/Malabo,29-08-23 10:30,25.9,78.6,0,8.6,81,87,28.6,83.5,34.3,6:20 AM,6:31 PM,5:22 PM,4:38 AM
172.217.6.227-10.42.0.151-443-58519-6,Eritrea,Asmara,15.33,38.93,Africa/Asmara,29-08-23 12:30,25.1,77.2,1,17.3,34,87,25,77,37.9,6:11 AM,6:39 PM,5:35 PM,4:10 AM
10.42.0.1-10.42.0.42-53-16933-17,Estonia,Tallinn,59.43,24.73,Europe/Tallinn,29-08-23 12:30,19,66.2,1,16.9,73,50,19,66.2,103,6:09 AM,8:33 PM,8:51 PM,2:15 AM
10.42.0.42-23.101.156.198-42150-443-6,Swaziland,Mbabane,-26.32,31.13,Africa/Mbabane,29-08-23 11:30,20,68,1,3.6,49,0,20,68,46.5,6:12 AM,5:42 PM,3:57 PM,5:02 AM
202.77.129.150-10.42.0.211-443-35365-6,Ethiopia,Addis Ababa,9.03,38.7,Africa/Addis_Ababa,29-08-23 12:30,17,62.6,1,13,83,50,17,62.6,33.3,6:17 AM,6:35 PM,5:26 PM,4:23 AM
172.217.12.142-10.42.0.151-443-49138-6,Fiji Islands,Suva,-18.13,178.42,Pacific/Fiji,29-08-23 21:30,24,75.2,1,13,78,75,25.9,78.7,61.5,6:17 AM,5:59 PM,3:56 PM,4:33 AM
184.73.243.250-10.42.0.211-443-57260-6,Finland,Helsinki,60.18,24.93,Europe/Helsinki,29-08-23 12:30,20,68,1,19.1,64,50,20,68,70.8,6:06 AM,8:34 PM,8:56 PM,2:06 AM
10.42.0.211-104.88.89.135-40911-443-6,France,Paris,48.87,2.33,Europe/Paris,29-08-23 11:30,18,64.4,1,11.2,64,25,18,64.4,70.1,7:03 AM,8:40 PM,8:26 PM,4:07 AM
219.142.78.162-10.42.0.211-443-59395-6,Gabon,Libreville,0.38,9.45,Africa/Libreville,29-08-23 10:30,27,80.6,1,8.3,74,56,29.6,85.3,26.1,6:19 AM,6:27 PM,5:14 PM,4:41 AM
10.42.0.211-98.139.199.204-37891-443-6,Gambia,Banjul,13.45,-16.58,Africa/Banjul,29-08-23 9:30,27,80.6,1,15.1,94,75,30.4,86.7,35.4,6:55 AM,7:20 PM,6:22 PM,5:06 AM
10.42.0.211-10.42.0.1-54343-53-17,Georgia,Tbilisi,41.73,44.79,Asia/Tbilisi,29-08-23 13:30,30,86,1,13,43,0,30.2,86.3,78,6:23 AM,7:40 PM,7:09 PM,3:38 AM
10.42.0.211-121.12.98.62-47808-80-6,Germany,Berlin,52.52,13.4,Europe/Berlin,29-08-23 11:30,16,60.8,1,15.1,82,75,16,60.8,52.9,6:11 AM,8:02 PM,7:56 PM,3:01 AM
10.42.0.211-119.146.74.34-52903-80-6,Ghana,Accra,5.55,-0.22,Africa/Accra,29-08-23 9:30,26,78.8,1,11.2,89,100,28.4,83.1,17.9,5:55 AM,6:09 PM,5:02 PM,4:12 AM
183.79.250.123-10.42.0.211-443-33999-6,Greece,Athens,37.98,23.72,Europe/Athens,29-08-23 12:30,32,89.6,1,11.2,26,25,32.3,90.1,177.4,6:52 AM,8:00 PM,7:25 PM,4:19 AM
203.205.151.47-10.42.0.151-80-35400-6,Grenada,Saint George's,12.05,-61.75,America/Grenada,29-08-23 5:30,26,78.8,1,20.2,94,50,28.6,83.5,17.4,5:57 AM,6:19 PM,5:28 PM,4:17 AM
10.42.0.151-54.243.94.115-37027-443-6,Guatemala,Guatemala City,14.62,-90.53,America/Guatemala,29-08-23 3:30,17,62.6,1,3.6,96,57,17,62.6,1.1,5:50 AM,6:16 PM,5:31 PM,4:13 AM
151.101.1.140-10.42.0.211-443-44570-6,Guinea,Conakry,9.51,-13.71,Africa/Conakry,29-08-23 9:30,25,77,1,6.8,100,75,27.2,81,27.9,6:46 AM,7:06 PM,6:04 PM,5:01 AM
172.217.12.142-10.42.0.151-443-43672-6,Guinea-Bissau,Bissau,11.85,-15.58,Africa/Bissau,29-08-23 9:30,28,82.4,1,11.2,84,50,32.3,90.1,15.7,6:52 AM,7:15 PM,6:15 PM,5:05 AM
10.42.0.211-10.42.0.1-52775-53-17,Guyana,Georgetown,6.8,-58.17,America/Guyana,29-08-23 5:30,24,75.2,1,3.6,100,75,26.3,79.4,13.6,5:46 AM,6:01 PM,5:05 PM,4:12 AM
10.42.0.151-58.220.11.230-51565-80-6,Haiti,Port-Au-Prince,18.54,-72.34,America/Port-au-Prince,29-08-23 5:30,27,80.6,1,15.1,89,0,32.1,89.8,27.2,6:34 AM,7:06 PM,6:21 PM,4:50 AM
10.42.0.211-23.208.218.4-57725-443-6,Vatican City,Vatican City,41.9,12.45,Europe/Rome,29-08-23 11:30,21,69.8,1,3.6,88,50,21,69.8,70.8,6:32 AM,7:50 PM,7:22 PM,3:54 AM
10.42.0.211-10.42.0.1-60699-53-17,Honduras,Tegucigalpa,14.1,-87.22,America/Tegucigalpa,29-08-23 3:30,21,69.8,1,6.1,88,75,21,69.8,16.5,5:37 AM,6:02 PM,5:16 PM,4:00 AM
172.217.6.206-10.42.0.151-443-48758-6,Hungary,Budapest,47.5,19.08,Europe/Budapest,29-08-23 11:30,20,68,1,11.2,88,75,20,68,83,5:58 AM,7:31 PM,7:13 PM,3:03 AM
10.42.0.211-64.71.142.125-37520-443-6,Iceland,Hella,63.83,-20.4,Atlantic/Reykjavik,29-08-23 9:30,11,51.8,1,6.8,82,0,10.5,50.9,45.1,5:56 AM,8:48 PM,9:30 PM,1:26 AM
10.42.0.211-10.42.0.1-12769-53-17,India,New Delhi,28.6,77.2,Asia/Kolkata,29-08-23 15:00,34,93.2,1,6.8,50,50,33.4,92.2,95.8,5:58 AM,6:46 PM,5:52 PM,3:31 AM
239.255.255.250-10.42.0.1-1900-50877-17,Indonesia,Jakarta,-6.21,106.85,Asia/Jakarta,29-08-23 16:30,31,87.8,1,25.9,63,25,33.2,91.7,191.7,5:55 AM,5:53 PM,4:16 PM,4:07 AM
174.35.73.97-10.42.0.211-80-54350-6,Iran,Tehran,35.73,51.33,Asia/Tehran,29-08-23 13:00,33,91.4,1,15.1,15,25,30.9,87.5,135.9,5:34 AM,6:37 PM,5:55 PM,3:00 AM
10.42.0.211-125.39.133.40-50444-80-6,Iraq,Baghdad,33.34,44.39,Asia/Baghdad,29-08-23 12:30,37,98.6,1,11.2,24,0,35.7,96.3,186,5:35 AM,6:32 PM,5:48 PM,3:06 AM
169.45.210.72-10.42.0.151-443-49893-6,Ireland,Dublin,53.33,-6.25,Europe/Dublin,29-08-23 10:30,14,57.2,1,22,88,75,12.6,54.6,56.5,6:28 AM,8:22 PM,8:20 PM,3:20 AM
10.42.0.151-31.13.80.37-59434-443-6,Israel,Jerusalem,31.78,35.23,Asia/Jerusalem,29-08-23 12:30,30,86,1,20.2,62,50,32.4,90.3,144.5,6:12 AM,7:07 PM,6:22 PM,3:49 AM
239.255.255.250-10.42.0.151-1900-59579-17,Italy,Rome,41.9,12.48,Europe/Rome,29-08-23 11:30,21,69.8,1,3.6,88,50,21,69.8,70.8,6:32 AM,7:49 PM,7:22 PM,3:54 AM
203.205.158.53-10.42.0.151-80-38446-6,Jamaica,Norman Gardens,17.97,-76.75,America/Jamaica,29-08-23 4:30,30,86,1,22,84,25,42.7,108.8,14.5,5:52 AM,6:23 PM,5:39 PM,4:09 AM
10.42.0.42-52.179.189.71-56644-443-6,Japan,Tokyo,35.69,139.69,Asia/Tokyo,29-08-23 18:30,32,89.6,1,15.1,59,25,37.9,100.3,37.6,5:11 AM,6:14 PM,5:22 PM,2:17 AM
10.42.0.151-31.13.80.5-52267-443-6,Jordan,Amman,31.95,35.93,Asia/Amman,29-08-23 12:30,27,80.6,1,19.1,51,50,27.2,81,131.6,6:09 AM,7:05 PM,6:19 PM,3:45 AM
10.42.0.211-52.84.37.117-57337-443-6,Kazakhstan,Astana,51.18,71.43,Asia/Almaty,29-08-23 15:30,22,71.6,0,31,29,37,23.5,74.3,73.7,6:22 AM,8:08 PM,7:54 PM,3:01 AM
10.42.0.211-63.251.88.56-34725-443-6,Kenya,Nairobi,-1.28,36.82,Africa/Nairobi,29-08-23 12:30,21,69.8,0,16.9,43,75,21,69.8,63.7,6:31 AM,6:36 PM,5:17 PM,4:50 AM
10.42.0.211-121.12.98.62-47809-80-6,Kiribati,Tarawa,-0.88,169.53,Pacific/Tarawa,29-08-23 21:30,28.9,84,0,16.6,77,51,33.7,92.7,12.7,6:40 AM,6:46 PM,5:04 PM,4:35 AM
10.42.0.211-10.42.0.1-17531-53-17,Kuwait,Kuwait City,29.37,47.96,Asia/Kuwait,29-08-23 12:30,39.6,103.3,1,3.6,23,0,40.3,104.5,181.7,5:24 AM,6:14 PM,5:25 PM,3:01 AM
10.42.0.211-31.13.67.16-36721-443-6,Kyrghyzstan,Bishkek,42.87,74.6,Asia/Bishkek,29-08-23 15:30,27.4,81.3,1,9.7,20,19,25.6,78.1,104.4,6:22 AM,7:43 PM,7:10 PM,3:28 AM
10.42.0.211-122.225.81.61-49429-80-6,Indonesia,Laos,-8.18,114.32,Asia/Jakarta,29-08-23 16:30,27.9,82.2,1,12.2,60,4,29.6,85.3,73.7,5:26 AM,5:22 PM,3:42 PM,3:40 AM
10.42.0.211-77.234.44.42-41658-80-6,Latvia,Riga,56.95,24.1,Europe/Riga,29-08-23 12:30,16,60.8,0,9,94,0,16,60.8,70.8,6:19 AM,8:29 PM,8:37 PM,2:42 AM
10.42.0.211-10.42.0.1-26521-53-17,Lebanon,Beirut,33.87,35.51,Asia/Beirut,29-08-23 12:45,30,86,0,24.1,62,75,34,93.2,108.7,6:09 AM,7:08 PM,6:26 PM,3:42 AM
10.42.0.211-10.42.0.1-42051-53-17,Lesotho,Maseru,-29.32,27.48,Africa/Johannesburg,29-08-23 11:45,18.9,66,1,4.3,15,0,18.9,66,94.4,6:29 AM,5:54 PM,4:06 PM,5:24 AM
10.42.0.42-103.7.30.118-38502-80-6,Liberia,Monrovia,6.31,-10.8,Africa/Monrovia,29-08-23 9:45,25,77,0,3.6,94,75,27,80.6,44,6:36 AM,6:52 PM,5:47 PM,4:55 AM
10.42.0.151-59.38.112.48-51076-80-6,Thailand,Nan,18.78,100.78,Asia/Bangkok,29-08-23 16:45,33,91.4,1,3.6,63,25,51.4,124.6,29,6:01 AM,6:34 PM,5:25 PM,3:44 AM
10.42.0.211-10.42.0.1-63377-53-17,Liechtenstein,Vaduz,47.13,9.52,Europe/Vaduz,29-08-23 11:45,12,53.6,0,6.8,100,75,12.5,54.4,36.1,6:36 AM,8:08 PM,7:51 PM,3:45 AM
10.42.0.211-77.234.44.200-33520-80-6,Lithuania,Vilnius,54.68,25.32,Europe/Vilnius,29-08-23 12:30,17,62.6,0,13,94,75,17,62.6,90.8,6:19 AM,8:19 PM,8:19 PM,2:55 AM
202.77.129.150-10.42.0.42-443-47760-6,Luxembourg,Luxembourg,49.61,6.13,Europe/Luxembourg,29-08-23 11:45,16,60.8,1,11.2,77,25,16,60.8,61.5,6:46 AM,8:26 PM,8:13 PM,3:48 AM
192.229.173.173-10.42.0.211-443-56517-6,Madagascar,Antananarivo,-18.92,47.52,Indian/Antananarivo,29-08-23 12:45,21,69.8,1,24.1,56,75,21,69.8,57.9,6:01 AM,5:42 PM,4:02 PM,4:38 AM
8.43.72.77-10.42.0.211-443-50370-6,Malawi,Lilongwe,-13.98,33.78,Africa/Blantyre,29-08-23 11:45,18,64.4,0,19.1,88,25,18,64.4,60.8,5:52 AM,5:40 PM,4:09 PM,4:25 AM
10.42.0.211-64.71.142.124-40376-80-6,Malaysia,Kuala Lumpur,3.17,101.7,Asia/Kuala_Lumpur,29-08-23 17:45,27,80.6,1,3.6,89,25,29.4,84.9,29.3,7:09 AM,7:20 PM,5:54 PM,5:11 AM
209.10.120.26-10.42.0.211-80-41949-6,Maldives,Farukolhufunadhoo,6.15,73.27,Indian/Maldives,29-08-23 14:30,25.3,77.5,0,42.8,87,100,28.1,82.6,39,6:01 AM,6:15 PM,4:57 PM,4:04 AM
202.77.129.150-10.42.0.151-80-39300-6,Mali,Bamako,12.65,-8,Africa/Bamako,29-08-23 9:45,23,73.4,0,13,100,25,25.1,77.3,9.8,6:21 AM,6:45 PM,5:46 PM,4:31 AM
10.42.0.151-121.12.98.62-47653-80-6,Malta,Valletta,35.9,14.51,Europe/Malta,29-08-23 11:30,28,82.4,1,20.2,42,25,29.3,84.7,83,6:31 AM,7:34 PM,6:57 PM,4:04 AM
10.42.0.211-104.192.110.245-33394-80-6,Marshall Islands,Majuro,7.1,171.38,Pacific/Majuro,29-08-23 21:45,29,84.2,1,11.2,75,100,33.8,92.8,27.9,6:27 AM,6:44 PM,5:11 PM,4:12 AM
172.217.11.10-10.42.0.211-443-52657-6,Mauritania,Nouakchott,18.09,-15.98,Africa/Nouakchott,29-08-23 9:45,28.6,83.5,1,19.8,70,11,32,89.6,38.6,6:49 AM,7:21 PM,6:27 PM,4:55 AM
172.217.6.232-10.42.0.211-443-50437-6,Mauritius,Port Louis,-20.16,57.5,Indian/Mauritius,29-08-23 13:30,26,78.8,1,15.1,70,75,27.1,80.8,66.5,6:21 AM,6:01 PM,4:18 PM,4:59 AM
10.42.0.151-98.139.180.149-58152-443-6,Mexico,Mexico City,19.43,-99.13,America/Mexico_City,29-08-23 3:45,16,60.8,1,11.2,77,50,16,60.8,0.4,6:20 AM,6:54 PM,6:14 PM,4:40 AM
10.42.0.211-23.23.129.231-47746-443-6,Micronesia,Palikir,6.92,158.15,Pacific/Pohnpei,29-08-23 20:45,26,78.8,1,6.1,100,100,28.1,82.5,10,6:20 AM,6:36 PM,5:05 PM,4:08 AM
10.42.0.211-115.239.210.141-51792-80-6,Russia,Chi-Chi-Erh,51.7,94.45,Asia/Krasnoyarsk,29-08-23 16:45,36.5,97.7,0,20.5,12,98,35.1,95.2,94.4,5:49 AM,7:37 PM,7:23 PM,2:20 AM
10.42.0.211-10.42.0.1-22262-53-17,Monaco,Monaco,43.73,7.42,Europe/Monaco,29-08-23 11:45,22,71.6,0,20.2,73,50,24.5,76.1,70.8,6:50 AM,8:12 PM,7:48 PM,4:08 AM
172.217.3.110-10.42.0.151-443-41677-6,Mongolia,Ulaanbaatar,47.92,106.92,Asia/Ulaanbaatar,29-08-23 17:30,26,78.8,1,11.2,32,25,29,84.2,14,6:05 AM,7:41 PM,7:16 PM,2:48 AM
10.42.0.211-77.234.44.201-56532-80-6,Montenegro,Podgorica,42.44,19.26,Europe/Podgorica,29-08-23 11:45,25,77,0,3.6,65,50,26.3,79.3,105.9,6:04 AM,7:23 PM,6:55 PM,3:23 AM
172.217.10.10-10.42.0.151-443-52315-6,Morocco,Rabat,34.03,-6.84,Africa/Casablanca,29-08-23 10:30,24,75.2,1,11.2,78,0,25.6,78.1,85.8,6:59 AM,7:58 PM,7:21 PM,4:40 AM
203.205.147.229-10.42.0.151-80-34427-6,Mozambique,Maputo,-25.97,32.59,Africa/Maputo,29-08-23 11:45,21,69.8,1,16.9,64,75,21,69.8,67.2,6:06 AM,5:36 PM,3:52 PM,4:55 AM
172.217.12.142-10.42.0.151-443-40766-6,Myanmar,Pathein,16.78,94.73,Asia/Yangon,29-08-23 16:15,30,86,1,16.6,68,62,34.7,94.5,52.9,5:57 AM,6:27 PM,5:17 PM,3:44 AM
10.42.0.151-10.42.0.1-33035-53-17,Namibia,Windhoek,-22.57,17.08,Africa/Windhoek,29-08-23 11:45,20,68,1,6.1,43,0,20,68,107.3,7:05 AM,6:41 PM,5:03 PM,5:52 AM
172.217.10.106-10.42.0.211-443-52802-6,Turkey,Yaren,39.55,27.62,Europe/Istanbul,29-08-23 12:45,28,82.4,1,3.6,55,0,27,80.6,107.3,6:34 AM,7:46 PM,7:13 PM,3:58 AM
172.217.12.131-10.42.0.211-443-60033-6,Nepal,Kathmandu,27.72,85.32,Asia/Kathmandu,29-08-23 15:30,28,82.4,0,11.2,58,75,32,89.6,89.4,5:41 AM,6:28 PM,5:32 PM,3:14 AM
10.42.0.211-23.203.49.224-56950-443-6,Netherlands,Amsterdam,52.37,4.89,Europe/Amsterdam,29-08-23 11:30,19,66.2,1,15.1,73,25,19,66.2,58.7,6:46 AM,8:36 PM,8:30 PM,3:38 AM
172.217.9.234-10.42.0.151-443-39448-6,New Zealand,Wellington,-41.3,174.78,Pacific/Auckland,29-08-23 21:30,9,48.2,1,19.1,81,0,6.6,43.9,63.7,6:52 AM,5:53 PM,3:13 PM,5:51 AM
173.241.242.143-10.42.0.151-443-41248-6,Nicaragua,Managua,12.15,-86.27,America/Managua,29-08-23 3:45,25,77,1,3.6,100,25,27.8,82,12,5:35 AM,5:57 PM,5:09 PM,4:00 AM
10.42.0.42-104.192.110.245-45768-80-6,Niger,Niamey,13.52,2.12,Africa/Niamey,29-08-23 10:45,30,86,0,19.1,62,0,31.8,89.3,26.1,6:40 AM,7:05 PM,6:05 PM,4:48 AM
10.42.0.211-106.11.94.21-56997-443-6,Nigeria,Abuja,9.18,7.18,Africa/Lagos,29-08-23 10:45,28,82.4,0,11.2,74,50,31.6,88.9,25.4,6:23 AM,6:42 PM,5:37 PM,4:34 AM
216.58.219.234-10.42.0.211-443-56290-6,North Korea,Pyongyang,39.02,125.75,Asia/Pyongyang,29-08-23 18:45,22,71.6,1,10.1,88,83,24.5,76.1,14.7,6:02 AM,7:13 PM,6:28 PM,3:05 AM
172.217.3.106-10.42.0.151-443-34456-6,Macedonia,Skopje,42,21.43,Europe/Skopje,29-08-23 11:30,30,86,0,3.6,43,25,29.5,85.1,104.4,5:56 AM,7:14 PM,6:45 PM,3:16 AM
10.42.0.151-10.42.0.1-17659-53-17,Norway,Oslo,59.92,10.75,Europe/Oslo,29-08-23 11:30,12,53.6,1,29.9,94,75,12.5,54.4,26.8,6:04 AM,8:30 PM,8:51 PM,2:10 AM
203.205.158.61-10.42.0.211-80-53346-6,Oman,Muscat,23.61,58.59,Asia/Muscat,29-08-23 13:45,33,91.4,1,24.1,80,0,40.9,105.7,81.5,5:47 AM,6:27 PM,5:29 PM,3:31 AM
174.35.73.111-10.42.0.211-80-51244-6,Pakistan,Islamabad,33.7,73.17,Asia/Karachi,29-08-23 14:45,31.9,89.4,0,5.8,45,13,33.7,92.7,277.5,5:39 AM,6:37 PM,5:51 PM,3:04 AM
10.42.0.151-103.43.91.20-46691-443-6,Palau,Adkip,7.36,134.51,Pacific/Palau,29-08-23 18:45,29,84.2,0,19.1,84,75,35.3,95.5,27.2,5:55 AM,6:11 PM,4:44 PM,3:46 AM
202.77.129.150-10.42.0.151-80-51600-6,Bolivia,National,-11.18,-67.08,America/La_Paz,29-08-23 5:45,22.5,72.5,1,3.6,57,16,24.7,76.5,28.3,6:33 AM,6:25 PM,5:15 PM,5:20 AM
172.217.12.142-10.42.0.211-443-38526-6,Panama,Panama City,8.97,-79.53,America/Panama,29-08-23 4:30,27,80.6,1,6.1,89,75,31.6,88.9,0.4,6:10 AM,6:28 PM,5:37 PM,4:37 AM
172.217.3.99-10.42.0.151-443-51327-6,Papua New Guinea,Port Moresby,-9.46,147.19,Pacific/Port_Moresby,29-08-23 19:45,24.4,75.9,1,28.4,80,22,26.4,79.5,50.1,6:15 AM,6:09 PM,4:22 PM,4:25 AM
172.217.6.234-10.42.0.211-443-59260-6,Paraguay,Carreria,-21.55,-58.12,America/Asuncion,29-08-23 5:45,22.8,73,1,4.7,40,99,24.2,75.6,12.5,6:05 AM,5:43 PM,4:20 PM,5:02 AM
10.42.0.211-23.21.95.195-60204-443-6,Peru,Lima,-12.05,-77.05,America/Lima,29-08-23 4:30,16.2,61.2,1,10.8,86,58,16.2,61.2,38.6,6:14 AM,6:05 PM,4:55 PM,5:03 AM
10.42.0.211-104.88.106.16-49230-80-6,Philippines,Manila,14.6,120.98,Asia/Manila,29-08-23 17:45,27,80.6,0,20.2,89,100,30.1,86.3,39.7,5:44 AM,6:10 PM,4:53 PM,3:28 AM
192.229.173.173-10.42.0.42-80-38018-6,Poland,Warsaw,52.25,21,Europe/Warsaw,29-08-23 11:45,22,71.6,0,6.8,83,75,24.5,76.1,65.8,5:42 AM,7:32 PM,7:25 PM,2:29 AM
172.217.11.3-10.42.0.42-80-52745-6,Portugal,Lisbon,38.72,-9.13,Europe/Lisbon,29-08-23 10:30,21,69.8,1,3.6,69,25,21,69.8,63.7,7:03 AM,8:12 PM,7:42 PM,4:36 AM
10.42.0.211-95.213.11.133-55171-80-6,Qatar,Doha,25.29,51.53,Asia/Qatar,29-08-23 12:45,38,100.4,1,19.1,54,0,42.6,108.7,147.3,5:13 AM,5:56 PM,5:01 PM,2:56 AM
10.42.0.211-10.42.0.1-65027-53-17,Romania,Bucharest,44.43,26.1,Europe/Bucharest,29-08-23 12:30,35,95,1,16.9,32,0,33.6,92.5,104.4,6:34 AM,7:58 PM,7:34 PM,3:47 AM
10.42.0.211-10.42.0.1-40710-53-17,Russia,Moscow,55.75,37.62,Europe/Moscow,29-08-23 12:30,16,60.8,1,15.1,68,75,16,60.8,25.8,5:28 AM,7:33 PM,7:35 PM,1:55 AM
172.217.10.138-10.42.0.42-443-52349-6,Rwanda,Kigali,-1.95,30.06,Africa/Kigali,29-08-23 11:45,26,78.8,1,22,34,50,25.1,77.3,54.4,5:59 AM,6:03 PM,4:44 PM,4:19 AM
10.42.0.211-10.42.0.1-51323-53-17,Saint Kitts and Nevis,Basseterre,17.3,-62.72,America/St_Kitts,29-08-23 5:45,28,82.4,1,16.9,84,0,32,89.7,14.8,5:57 AM,6:27 PM,5:40 PM,4:12 AM
10.42.0.211-64.71.142.124-48352-80-6,Saint Lucia,Castries,14,-61,America/St_Lucia,29-08-23 5:45,27,80.6,1,25.9,89,50,30.5,86.8,20.7,5:52 AM,6:17 PM,5:28 PM,4:11 AM
10.42.0.211-104.97.95.172-39605-80-6,Saint Vincent and the Grenadines,Kingstown,13.13,-61.22,America/St_Vincent,29-08-23 5:45,28.8,83.8,0,29.2,78,82,33.7,92.7,20.7,5:54 AM,6:18 PM,5:27 PM,4:13 AM
10.42.0.211-10.42.0.1-12353-53-17,Samoa,Apia,-13.83,-171.73,Pacific/Apia,29-08-23 22:45,26,78.8,0,20.2,84,75,28.7,83.7,62.2,6:34 AM,6:22 PM,4:22 PM,4:43 AM
172.217.11.46-10.42.0.211-443-50648-6,San Marino,San Marino,43.93,12.45,Europe/Rome,29-08-23 11:45,21,69.8,1,15.1,64,50,21,69.8,65.8,6:29 AM,7:52 PM,7:28 PM,3:46 AM
10.42.0.1-10.42.0.42-53-9575-17,Belgium,'S-Gravenwezel,51.27,4.55,Europe/Brussels,29-08-23 11:45,17,62.6,0,6.8,77,25,17,62.6,46.5,6:49 AM,8:35 PM,8:27 PM,3:46 AM
10.42.0.1-10.42.0.42-53-22444-17,Saudi Arabia,Riyadh,24.64,46.77,Asia/Riyadh,29-08-23 12:30,42,107.6,0,9,6,0,43,109.3,160.2,5:33 AM,6:15 PM,5:20 PM,3:18 AM
10.42.0.211-64.71.142.124-49728-443-6,Senegal,Dakar,14.67,-17.44,Africa/Dakar,29-08-23 9:45,27,80.6,1,6.8,89,50,30.1,86.3,33.6,6:57 AM,7:24 PM,6:28 PM,5:07 AM
1.31.173.21-10.42.0.151-80-36854-6,Serbia,Belgrade,44.8,20.47,Europe/Belgrade,29-08-23 11:30,24,75.2,0,19.1,65,25,25.3,77.6,91.6,5:56 AM,7:21 PM,6:58 PM,3:09 AM
10.42.0.211-10.42.0.1-59548-53-17,Seychelles Islands,Victoria,-4.62,55.45,Indian/Mahe,29-08-23 13:30,26.3,79.3,1,35.3,85,96,29.5,85.1,38.3,6:19 AM,6:19 PM,4:54 PM,4:38 AM
10.42.0.151-23.194.141.179-55054-443-6,Sierra Leone,Freetown,8.49,-13.23,Africa/Freetown,29-08-23 9:45,24,75.2,1,3.6,100,75,26.2,79.1,19,6:45 AM,7:03 PM,6:01 PM,5:01 AM
10.42.0.211-122.225.81.61-40754-80-6,Singapore,Singapore,1.29,103.86,Asia/Singapore,29-08-23 17:30,31,87.8,0,11.2,59,75,37.5,99.6,44.7,7:02 AM,7:10 PM,5:42 PM,5:05 AM
10.42.0.211-63.250.200.101-40104-443-6,Slovakia,Bratislava,48.15,17.12,Europe/Bratislava,29-08-23 11:30,19,66.2,1,13,88,75,19,66.2,62.9,6:05 AM,7:40 PM,7:23 PM,3:08 AM
10.42.0.211-64.71.142.95-53805-443-6,Slovenia,Ljubljana,46.06,14.51,Europe/Ljubljana,29-08-23 11:30,16,60.8,0,11.2,100,75,16,60.8,85.8,6:18 AM,7:47 PM,7:26 PM,3:29 AM
172.217.10.78-10.42.0.151-443-46729-6,Solomon Islands,Honiara,-9.43,159.95,Pacific/Guadalcanal,29-08-23 20:45,27,80.6,1,6.8,79,75,31,87.9,41.8,6:24 AM,6:18 PM,4:29 PM,4:32 AM
10.42.0.1-10.42.0.42-53-25143-17,Somalia,Mogadishu,2.07,45.37,Africa/Mogadishu,29-08-23 12:45,29,84.2,1,28.1,84,75,33.1,91.7,30.4,5:55 AM,6:04 PM,4:47 PM,4:08 AM
10.42.0.1-10.42.0.42-53-19806-17,South Africa,Pretoria,-25.75,28.19,Africa/Johannesburg,29-08-23 11:45,18,64.4,0,6.8,30,0,18,64.4,128.8,6:23 AM,5:54 PM,4:10 PM,5:13 AM
10.42.0.211-47.89.68.225-57580-443-6,South Korea,Seoul,37.57,127,Asia/Seoul,29-08-23 18:30,23,73.4,0,6.8,94,100,25.2,77.3,35.8,5:59 AM,7:07 PM,6:18 PM,3:05 AM
151.101.45.140-10.42.0.151-443-56190-6,Sudan,Juba,12.15,24.45,Africa/Khartoum,29-08-23 11:45,31.2,88.2,1,15.8,43,3,32.1,89.8,22.7,6:11 AM,6:34 PM,5:30 PM,4:17 AM
10.42.0.211-74.6.105.13-40528-443-6,Spain,Madrid,40.4,-3.68,Europe/Madrid,29-08-23 11:45,20,68,1,6.1,49,0,20,68,117.3,7:39 AM,8:52 PM,8:23 PM,5:07 AM
212.13.197.229-10.42.0.211-80-52206-6,Sri Lanka,Colombo,6.93,79.85,Asia/Colombo,29-08-23 15:15,31,87.8,1,29.9,66,50,39.7,103.4,25,6:04 AM,6:19 PM,5:01 PM,4:05 AM
172.217.10.227-10.42.0.151-443-53096-6,Sudan,Khartoum,15.59,32.53,Africa/Khartoum,29-08-23 11:45,30.4,86.7,0,29.2,49,58,31.9,89.4,42.9,5:37 AM,6:05 PM,5:02 PM,3:37 AM
10.42.0.151-10.42.0.1-16100-53-17,Suriname,Paramaribo,5.83,-55.17,America/Paramaribo,29-08-23 6:45,25,77,0,3.6,94,25,28.1,82.6,19.3,6:34 AM,6:49 PM,5:51 PM,5:01 AM
10.42.0.1-10.42.0.42-53-64914-17,Sweden,Stockholm,59.33,18.05,Europe/Stockholm,29-08-23 11:45,18,64.4,0,16.9,64,0,18,64.4,51.5,5:37 AM,7:59 PM,8:17 PM,1:46 AM
172.217.10.10-10.42.0.211-443-39014-6,Switzerland,Bern,46.92,7.47,Europe/Zurich,29-08-23 11:30,14,57.2,0,3.6,77,75,14.7,58.4,57.2,6:45 AM,8:16 PM,7:58 PM,3:55 AM
172.217.6.195-10.42.0.211-443-56686-6,Syria,Damascus,33.5,36.3,Asia/Damascus,29-08-23 12:45,32,89.6,1,19.1,30,50,30,85.9,127.3,6:06 AM,7:05 PM,6:22 PM,3:40 AM
10.42.0.42-66.231.239.96-34357-443-6,Tajikistan,Dushanbe,38.56,68.77,Asia/Dushanbe,29-08-23 14:30,32,89.6,0,11.2,17,0,29.8,85.6,104.4,5:51 AM,7:00 PM,6:21 PM,3:07 AM
10.42.0.211-54.192.38.236-54568-443-6,Tanzania,Dodoma,-6.18,35.75,Africa/Dar_es_Salaam,29-08-23 12:30,23,73.4,1,24.1,53,25,24.3,75.7,37.6,6:39 AM,6:37 PM,5:14 PM,5:03 AM
10.42.0.151-52.84.40.77-59577-443-6,Thailand,Bangkok,13.75,100.52,Asia/Bangkok,29-08-23 16:45,33,91.4,0,11.2,56,50,37.6,99.6,8.3,6:06 AM,6:31 PM,5:17 PM,3:55 AM
10.42.0.211-10.42.0.1-45554-53-17,Indonesia,Murong Timor,-7.56,112.27,Asia/Jakarta,29-08-23 16:45,33.5,92.3,0,13.7,30,7,33.2,91.8,147.3,5:34 AM,5:31 PM,3:52 PM,3:47 AM
202.77.129.150-10.42.0.151-443-48796-6,Bulgaria,Lom,43.81,23.24,Europe/Bucharest,29-08-23 12:45,31.3,88.3,1,7.2,31,11,30.4,86.7,86.6,6:46 AM,8:09 PM,7:43 PM,4:01 AM
10.42.0.211-10.42.0.1-52151-53-17,Tonga,Nuku`Aloia,-21.13,-175.2,Pacific/Tongatapu,29-08-23 22:45,21,69.8,1,15.1,78,75,21,69.8,75.8,6:53 AM,6:31 PM,4:22 PM,5:13 AM
172.217.10.234-10.42.0.151-443-44837-6,Trinidad and Tobago,Port Of Spain,10.65,-61.52,America/Port_of_Spain,29-08-23 5:30,26,78.8,0,3.6,89,25,29.3,84.8,9.7,5:57 AM,6:17 PM,5:25 PM,4:19 AM
216.218.254.202-10.42.0.211-123-48971-17,Tunisia,Tunis,36.8,10.18,Africa/Tunis,29-08-23 10:45,29,84.2,1,24.1,40,50,29.2,84.5,85.8,5:48 AM,6:52 PM,6:17 PM,3:20 AM
172.217.10.227-10.42.0.151-443-51779-6,Turkey,Ankara,39.93,32.86,Europe/Istanbul,29-08-23 12:45,28,82.4,0,3.6,28,0,26.4,79.5,163.1,6:13 AM,7:26 PM,6:52 PM,3:35 AM
172.217.10.106-10.42.0.42-443-48733-6,Turkmenistan,Ashgabat,37.95,58.38,Asia/Ashgabat,29-08-23 14:45,35,95,0,19.1,19,25,33.2,91.7,223.2,6:33 AM,7:41 PM,7:02 PM,3:53 AM
174.35.73.199-10.42.0.211-443-54744-6,Tuvalu,Funafuti,-8.52,179.22,Pacific/Funafuti,29-08-23 21:45,29,84.2,1,9,89,50,33.9,93,29,6:07 AM,6:02 PM,4:10 PM,4:10 AM
172.217.10.67-10.42.0.42-443-35608-6,Uganda,Kampala,0.32,32.57,Africa/Kampala,29-08-23 12:45,25,77,0,24.1,69,50,25.9,78.6,45.8,6:47 AM,6:54 PM,5:37 PM,5:05 AM
192.229.163.180-10.42.0.151-443-46531-6,Ukraine,Lviv,49.83,24,Europe/Kiev,29-08-23 12:30,29.4,84.9,0,12.6,41,2,29.5,85.1,70.1,6:34 AM,8:15 PM,8:02 PM,3:31 AM
198.105.244.11-10.42.0.211-80-46244-6,United Arab Emirates,Abu Dhabi,24.47,54.37,Asia/Dubai,29-08-23 13:45,45,113,0,11.2,10,0,73.6,164.4,320.4,6:02 AM,6:44 PM,5:48 PM,3:46 AM
8.43.72.77-10.42.0.211-443-50370-6,United Kingdom,London,51.52,-0.11,Europe/London,29-08-23 10:45,18,64.4,0,13,68,0,18,64.4,57.2,6:08 AM,7:54 PM,7:47 PM,3:04 AM
182.22.31.252-10.42.0.211-443-48453-6,United States of America,Washington Park,46.6,-120.49,America/Los_Angeles,29-08-23 2:45,23.3,73.9,0,15.1,45,0,25.1,77.2,65.1,6:18 AM,7:47 PM,7:39 PM,4:00 AM
172.217.11.35-10.42.0.211-80-39653-6,Uruguay,Montevideo,-34.86,-56.17,America/Montevideo,29-08-23 6:30,7,44.6,0,11.2,93,0,5.2,41.3,26.5,7:08 AM,6:24 PM,4:46 PM,6:23 AM
10.42.0.1-10.42.0.42-53-64277-17,Uzbekistan,Tashkent,41.32,69.25,Asia/Tashkent,29-08-23 14:30,31,87.8,0,15.1,14,0,28.8,83.8,133,5:46 AM,7:02 PM,6:27 PM,2:56 AM
173.194.205.113-10.42.0.211-443-50468-6,Vanuatu,Port Vila,-17.73,168.32,Pacific/Efate,29-08-23 20:45,22,71.6,0,19.1,100,100,24.5,76.1,62.9,5:57 AM,5:39 PM,3:39 PM,4:14 AM
10.42.0.151-87.240.165.91-60010-80-6,Venezuela,Caracas,10.5,-66.92,America/Caracas,29-08-23 5:45,25,77,0,11.2,79,75,27.4,81.3,0,6:18 AM,6:39 PM,5:47 PM,4:42 AM
175.100.207.232-10.42.0.151-80-33129-6,Vietnam,Hanoi,21.03,105.85,Asia/Bangkok,29-08-23 16:45,30,86,0,11.2,66,0,33,91.3,90.1,5:40 AM,6:16 PM,5:08 PM,3:18 AM
10.42.0.211-31.13.71.7-34119-443-6,Yemen,Sanaa,15.35,44.21,Asia/Aden,29-08-23 12:45,25.3,77.5,0,6.5,31,88,25,77,114.4,5:50 AM,6:18 PM,5:14 PM,3:48 AM
10.42.0.211-23.206.162.129-53708-80-6,Zambia,Lusaka,-15.42,28.28,Africa/Lusaka,29-08-23 11:45,19.8,67.6,0,19.1,28,3,19.8,67.6,75.8,6:15 AM,6:01 PM,4:29 PM,4:51 AM
217.69.136.175-10.42.0.211-443-39269-6,Zimbabwe,Harare,-17.82,31.04,Africa/Harare,29-08-23 11:45,19,66.2,0,16.9,25,0,19,66.2,75.8,6:06 AM,5:49 PM,4:13 PM,4:44 AM
10.42.0.42-37.1.203.158-56451-443-6,Afghanistan,Kabul,34.52,69.18,Asia/Kabul,30-08-23 7:30,21.3,70.3,0,3.6,54,4,21.3,70.3,57.2,5:25 AM,6:23 PM,6:18 PM,4:05 AM
157.240.2.25-10.42.0.211-443-45799-6,Albania,Tirana,41.33,19.82,Europe/Tirane,30-08-23 5:00,22,71.6,0,6.1,73,75,24.5,76.2,75.8,6:05 AM,7:18 PM,7:23 PM,4:48 AM
10.42.0.211-104.192.110.245-36566-443-6,Algeria,Algiers,36.76,3.05,Africa/Algiers,30-08-23 4:00,19,66.2,0,3.6,73,25,19,66.2,35.1,6:17 AM,7:20 PM,7:23 PM,5:10 AM
10.42.0.42-87.240.165.80-36391-80-6,Andorra,Andorra La Vella,42.5,1.52,Europe/Andorra,30-08-23 4:45,2.9,37.2,0,7.6,91,25,0.8,33.4,35.1,7:17 AM,8:32 PM,8:39 PM,6:02 AM
10.42.0.1-10.42.0.42-53-32717-17,Angola,Luanda,-8.84,13.23,Africa/Luanda,30-08-23 3:45,21,69.8,1,11.2,94,25,21,69.8,62.9,6:10 AM,6:05 PM,5:45 PM,5:37 AM
10.42.0.211-98.139.183.24-35922-443-6,Antigua and Barbuda,Saint John's,17.12,-61.85,America/Antigua,29-08-23 22:45,29,84.2,1,16.9,75,50,33.7,92.7,23.6,5:54 AM,6:22 PM,6:24 PM,5:16 AM
10.42.0.211-10.42.0.1-45850-53-17,Argentina,Buenos Aires,-34.59,-58.67,America/Argentina/Buenos_Aires,29-08-23 23:45,11,51.8,0,15.1,82,0,9.9,49.9,21.5,7:17 AM,6:35 PM,6:14 PM,7:13 AM
172.217.10.99-10.42.0.211-443-55113-6,Armenia,Yerevan,40.18,44.51,Asia/Yerevan,30-08-23 7:00,18,64.4,1,6.1,60,0,18,64.4,29.3,6:27 AM,7:38 PM,7:40 PM,5:06 AM
10.42.0.151-72.21.207.148-35575-443-6,Australia,Canberra,-35.28,149.22,Australia/Sydney,30-08-23 13:00,16,60.8,0,15.1,55,75,16,60.8,52.2,6:26 AM,5:42 PM,4:36 PM,6:00 AM
140.205.134.25-10.42.0.211-443-34064-6,Austria,Vienna,48.2,16.37,Europe/Vienna,30-08-23 4:45,15,59,0,15.1,82,25,14,57.1,41.8,6:09 AM,7:41 PM,7:52 PM,4:42 AM
172.217.10.106-10.42.0.211-443-44444-6,Azerbaijan,Baku,40.4,49.88,Asia/Baku,30-08-23 6:45,23,73.4,1,22,57,0,24.8,76.7,77.3,6:05 AM,7:17 PM,7:18 PM,4:43 AM
183.79.248.252-10.42.0.211-443-55921-6,Bahamas,Nassau,25.08,-77.35,America/Nassau,29-08-23 22:45,30,86,1,20.2,79,75,37.8,100,55.8,6:49 AM,7:31 PM,7:37 PM,6:09 AM
10.42.0.151-36.110.213.49-37476-80-6,Bahrain,Manama,26.24,50.58,Asia/Bahrain,30-08-23 5:45,33,91.4,0,9,67,0,39.8,103.7,100.1,5:17 AM,6:00 PM,5:52 PM,4:10 AM
10.42.0.151-23.6.162.190-59734-443-6,Bangladesh,Dhaka,23.72,90.41,Asia/Dhaka,30-08-23 8:45,30.6,87.1,0,3.6,61,10,34.4,93.9,0.9,5:40 AM,6:18 PM,6:04 PM,4:27 AM
10.42.0.42-104.97.95.172-57548-80-6,Barbados,Bridgetown,13.1,-59.62,America/Barbados,29-08-23 23:00,28,82.4,1,25.9,89,50,32.2,90,14.3,5:47 AM,6:11 PM,6:10 PM,5:12 AM
10.42.0.211-10.42.0.1-8791-53-17,Belarus,Minsk,53.9,27.57,Europe/Minsk,30-08-23 5:45,20,68,1,6.8,88,0,20,68,45.8,6:14 AM,8:06 PM,8:22 PM,4:31 AM
208.80.154.224-10.42.0.211-443-34710-6,Belgium,Brussels,50.83,4.33,Europe/Brussels,30-08-23 5:00,12,53.6,0,9,88,75,10.9,51.5,21.5,6:53 AM,8:33 PM,8:47 PM,5:24 AM
192.229.163.180-10.42.0.211-443-36638-6,Belize,Belmopan,17.25,-88.77,America/Belize,29-08-23 21:00,24.4,75.9,0,4.3,91,86,26.9,80.4,7.7,5:41 AM,6:10 PM,6:15 PM,5:08 AM
172.217.10.78-10.42.0.211-443-37734-6,Benin,Porto-Novo,6.48,2.62,Africa/Porto-Novo,30-08-23 4:00,26,78.8,1,19.1,89,50,29.6,85.4,29.3,6:43 AM,6:58 PM,6:46 PM,6:01 AM
172.217.10.138-10.42.0.151-443-55244-6,Bhutan,Thimphu,27.48,89.6,Asia/Thimphu,30-08-23 9:00,18.3,64.9,1,5.4,65,11,18.3,64.9,38.6,5:40 AM,6:25 PM,6:13 PM,4:24 AM
10.42.0.42-23.206.163.180-36738-443-6,Bolivia,Sucre,-19.04,-65.26,America/La_Paz,29-08-23 23:00,13,55.4,0,6.8,52,7,12.7,54.9,26.8,6:31 AM,6:13 PM,6:01 PM,6:16 AM
216.58.219.226-10.42.0.211-443-38801-6,Bosnia and Herzegovina,Sarajevo,43.85,18.38,Europe/Sarajevo,30-08-23 4:45,16,60.8,1,3.6,88,25,16,60.8,18.1,6:07 AM,7:27 PM,7:34 PM,4:47 AM
192.229.163.180-10.42.0.42-443-47566-6,Botswana,Gaborone,-24.65,25.91,Africa/Gaborone,30-08-23 5:00,9,48.2,0,9,66,0,8.4,47.1,32.9,6:30 AM,6:04 PM,5:33 PM,6:08 AM
172.217.10.42-10.42.0.151-443-50473-6,Brazil,Bras,-2.08,-58.17,America/Manaus,29-08-23 23:00,26.9,80.4,0,5.4,38,6,26.7,80.1,25.8,5:52 AM,5:55 PM,5:49 PM,5:25 AM
10.42.0.211-104.97.95.172-41381-80-6,Brunei Darussalam,Bandar Seri Begawan,4.88,114.93,Asia/Brunei,30-08-23 11:00,32,89.6,0,13,75,75,37.5,99.4,39.7,6:14 AM,6:27 PM,5:58 PM,5:15 AM
172.217.6.227-10.42.0.211-443-45592-6,Bulgaria,Sofia,42.68,23.32,Europe/Sofia,30-08-23 5:45,17,62.6,1,6.8,88,75,17,62.6,9.8,6:49 AM,8:05 PM,8:11 PM,5:30 AM
10.42.0.151-31.13.71.36-42725-443-6,Burkina Faso,Ouagadougou,12.37,-1.52,Africa/Ouagadougou,30-08-23 3:00,24.6,76.3,1,17.6,81,10,26.6,79.9,9.6,5:56 AM,6:18 PM,6:09 PM,5:10 AM
10.42.0.42-24.190.54.173-46360-51156-17,Burundi,Bujumbura,-3.38,29.36,Africa/Bujumbura,30-08-23 5:00,22.5,72.5,0,3.6,57,8,24.7,76.5,15.2,6:02 AM,6:04 PM,5:44 PM,5:23 AM
10.42.0.211-52.84.37.172-46076-443-6,Madagascar,Ivory,-24.37,46.45,Indian/Antananarivo,30-08-23 6:00,13.2,55.8,0,4.7,83,0,13.4,56.1,14.1,6:08 AM,5:42 PM,5:07 PM,5:43 AM
182.254.5.234-10.42.0.211-80-47925-6,Cape Verde,Praia,14.93,-23.51,Atlantic/Cape_Verde,30-08-23 2:00,26,78.8,0,11.2,89,75,28.9,83.9,65.1,6:21 AM,6:48 PM,6:43 PM,5:38 AM
182.22.67.91-10.42.0.151-443-45274-6,Cambodia,Phnom Penh,11.55,104.92,Asia/Phnom_Penh,30-08-23 10:00,32,89.6,0,13,67,25,35.9,96.7,31.8,5:50 AM,6:12 PM,5:48 PM,4:46 AM
172.217.3.97-10.42.0.211-443-53228-6,Cameroon,Bafoussam,5.47,10.42,Africa/Douala,30-08-23 4:00,16.9,62.4,0,4.7,97,59,16.9,62.4,8.1,6:12 AM,6:26 PM,6:12 PM,5:30 AM
172.217.10.42-10.42.0.151-443-44003-6,Canada,Ottawa,45.42,-75.7,America/Toronto,29-08-23 22:45,20,68,1,9,88,75,20,68,61.5,6:21 AM,7:45 PM,8:00 PM,5:22 AM
211.236.244.151-10.42.0.211-80-34466-6,Central African Republic,Bangui,4.37,18.58,Africa/Bangui,30-08-23 4:00,23,73.4,0,3.6,89,50,25.4,77.7,0.2,5:41 AM,5:53 PM,5:37 PM,4:57 AM
10.42.0.211-104.88.89.135-51267-443-6,Chad,N'djamena,12.11,15.05,Africa/Douala,30-08-23 4:00,24,75.2,0,16.9,89,50,26,78.8,20.4,5:49 AM,6:11 PM,6:00 PM,5:01 AM
10.42.0.211-52.84.139.205-51684-443-6,Chile,Santiago,-33.45,-70.67,America/Santiago,29-08-23 22:45,13,55.4,1,16.9,58,0,13.6,56.4,0,7:03 AM,6:24 PM,6:06 PM,7:00 AM
10.42.0.211-123.125.29.220-56028-80-6,China,Beijing,39.93,116.39,Asia/Shanghai,30-08-23 11:00,29,84.2,1,3.6,43,0,28.8,83.8,31.5,5:40 AM,6:50 PM,6:45 PM,4:03 AM
169.47.5.252-10.42.0.42-5222-36805-6,Bulgaria,Bogot,43.32,24.7,Europe/Sofia,30-08-23 6:00,18.5,65.3,1,5.8,89,82,18.6,65.5,87.3,6:42 AM,8:01 PM,8:06 PM,5:22 AM
172.217.12.174-10.42.0.211-443-33529-6,Comoros,Moroni,-11.7,43.24,Indian/Comoro,30-08-23 6:00,23.3,73.9,0,24.1,82,76,25.3,77.5,53.6,6:12 AM,6:04 PM,5:37 PM,5:37 AM
10.42.0.211-103.235.46.212-35015-443-6,Congo,Brazzaville,-4.26,15.28,Africa/Brazzaville,30-08-23 4:00,24,75.2,1,6.8,78,0,25.5,78,18.6,5:59 AM,6:00 PM,5:42 PM,5:23 AM
10.42.0.211-10.42.0.1-19553-53-17,Costa Rica,San Juan,9.97,-84.08,America/Costa_Rica,29-08-23 21:00,23,73.4,1,6.8,94,75,25.5,77.9,19.3,5:28 AM,5:47 PM,5:49 PM,4:58 AM
10.42.0.211-10.42.0.1-52973-53-17,Croatia,Zagreb,45.8,16,Europe/Zagreb,30-08-23 4:45,16,60.8,0,6.8,88,75,16,60.8,47.2,6:14 AM,7:39 PM,7:48 PM,4:51 AM
216.58.219.194-10.42.0.211-443-48415-6,Cuba,Havana,23.13,-82.36,America/Havana,29-08-23 23:00,27,80.6,1,15.1,100,75,31.2,88.1,20.6,7:11 AM,7:49 PM,7:55 PM,6:33 AM
10.42.0.42-123.125.115.164-60148-443-6,Cyprus,Nicosia,35.17,33.37,Asia/Nicosia,30-08-23 6:00,22,71.6,1,6.8,73,25,24.6,76.2,52.2,6:17 AM,7:17 PM,7:16 PM,5:05 AM
203.205.158.52-10.42.0.211-80-40322-6,Czech Republic,Prague,50.08,14.47,Europe/Prague,30-08-23 4:45,13,55.4,0,11.2,94,100,13,55.3,32.5,6:13 AM,7:51 PM,8:04 PM,4:43 AM
10.42.0.211-10.42.0.1-11812-53-17,Democratic Republic of Congo,Kinshasa,-4.3,15.3,Africa/Brazzaville,30-08-23 4:00,24,75.2,0,6.8,78,0,25.6,78,18.6,5:59 AM,6:00 PM,5:42 PM,5:23 AM
172.217.3.99-10.42.0.42-443-56481-6,Denmark,Copenhagen,55.67,12.58,Europe/Copenhagen,30-08-23 4:45,14,57.2,0,6.1,82,75,14.4,57.9,16.1,6:10 AM,8:09 PM,8:29 PM,4:27 AM
172.217.12.174-10.42.0.211-443-58888-6,Djibouti,Djibouti,11.6,43.15,Africa/Djibouti,30-08-23 6:00,33,91.4,1,11.2,53,50,37.4,99.3,63.7,5:57 AM,6:19 PM,6:04 PM,5:05 AM
10.42.0.211-77.234.44.41-55497-80-6,Dominica,Roseau,15.3,-61.4,America/Dominica,29-08-23 23:00,28.3,82.9,0,19.8,79,80,32.8,91,16.6,5:53 AM,6:19 PM,6:20 PM,5:16 AM
220.181.7.190-10.42.0.211-443-33478-6,Dominican Republic,Santo Domingo,18.47,-69.9,America/Santo_Domingo,29-08-23 23:00,27,80.6,0,3.6,94,50,33,91.4,0,6:24 AM,6:56 PM,6:58 PM,5:47 AM
172.217.10.10-10.42.0.151-443-36690-6,Ecuador,Quito,-0.22,-78.5,America/Guayaquil,29-08-23 22:00,11.5,52.7,1,6.8,61,5,11,51.8,0,6:11 AM,6:18 PM,6:15 PM,5:47 AM
203.205.128.137-10.42.0.151-80-44455-6,Egypt,Cairo,30.05,31.25,Africa/Cairo,30-08-23 5:45,26,78.8,0,6.1,70,0,27.5,81.5,19.5,6:30 AM,7:21 PM,7:17 PM,5:25 AM
10.42.0.151-10.42.0.1-12500-53-17,El Salvador,San Salvador,13.71,-89.2,America/El_Salvador,29-08-23 20:45,27,80.6,0,3.6,94,25,32.8,91.1,29,5:45 AM,6:09 PM,6:13 PM,5:14 AM
10.42.0.151-23.208.168.108-54199-443-6,Equatorial Guinea,Malabo,3.75,8.78,Africa/Malabo,30-08-23 4:00,24.1,75.4,0,10.8,91,64,26.5,79.7,33.6,6:20 AM,6:31 PM,6:17 PM,5:39 AM
10.42.0.211-31.13.80.8-42504-443-6,Eritrea,Asmara,15.33,38.93,Africa/Asmara,30-08-23 5:45,18.2,64.8,1,3.6,60,10,18.2,64.8,32.2,6:11 AM,6:38 PM,6:25 PM,5:17 AM
180.149.134.221-10.42.0.42-80-39753-6,Estonia,Tallinn,59.43,24.73,Europe/Tallinn,30-08-23 5:45,14,57.2,1,11.2,94,25,12.7,54.9,44,6:12 AM,8:30 PM,8:55 PM,4:12 AM
10.42.0.211-123.125.29.138-48801-443-6,Swaziland,Mbabane,-26.32,31.13,Africa/Mbabane,30-08-23 5:00,7.6,45.7,1,5.8,87,0,6.8,44.2,27.5,6:11 AM,5:42 PM,5:08 PM,5:49 AM
10.42.0.211-10.42.0.1-51200-53-17,Ethiopia,Addis Ababa,9.03,38.7,Africa/Addis_Ababa,30-08-23 6:00,14,57.2,0,15.1,100,75,14.7,58.4,12.3,6:17 AM,6:35 PM,6:19 PM,5:27 AM
180.76.145.14-10.42.0.211-80-45102-6,Fiji Islands,Suva,-18.13,178.42,Pacific/Fiji,30-08-23 14:45,26,78.8,0,25.9,70,50,27.9,82.3,54.4,6:16 AM,5:59 PM,5:03 PM,5:27 AM
174.35.73.111-10.42.0.211-80-36481-6,Finland,Helsinki,60.18,24.93,Europe/Helsinki,30-08-23 6:00,12,53.6,1,9,100,75,10.5,50.8,45.8,6:09 AM,8:31 PM,8:57 PM,4:06 AM
10.42.0.151-121.12.98.63-48217-80-6,France,Paris,48.87,2.33,Europe/Paris,30-08-23 4:45,14,57.2,1,3.6,88,100,13.6,56.4,15,7:04 AM,8:38 PM,8:50 PM,5:40 AM
10.42.0.211-123.125.46.12-34480-80-6,Gabon,Libreville,0.38,9.45,Africa/Libreville,30-08-23 4:00,25,77,1,13,94,50,27.6,81.7,29.7,6:19 AM,6:26 PM,6:11 PM,5:41 AM
208.80.153.224-10.42.0.151-80-55943-6,Gambia,Banjul,13.45,-16.58,Africa/Banjul,30-08-23 3:00,24,75.2,1,11.2,89,75,26,78.8,32.9,6:55 AM,7:19 PM,7:13 PM,6:11 AM
172.217.10.142-10.42.0.42-443-46230-6,Georgia,Tbilisi,41.73,44.79,Asia/Tbilisi,30-08-23 6:45,20,68,0,6.1,83,0,20,68,5,6:24 AM,7:39 PM,7:41 PM,5:01 AM
172.217.20.99-10.42.0.151-443-53908-6,Germany,Berlin,52.52,13.4,Europe/Berlin,30-08-23 4:45,14,57.2,1,9,94,0,14.1,57.3,48.6,6:13 AM,8:00 PM,8:15 PM,4:38 AM
172.217.3.106-10.42.0.42-443-54527-6,Ghana,Accra,5.55,-0.22,Africa/Accra,30-08-23 3:00,26,78.8,0,16.9,89,75,29.4,84.9,17.7,5:55 AM,6:08 PM,5:57 PM,5:14 AM
10.42.0.211-10.42.0.1-34584-53-17,Greece,Athens,37.98,23.72,Europe/Athens,30-08-23 6:00,26,78.8,1,9,48,25,27.1,80.7,72.2,6:53 AM,7:58 PM,8:00 PM,5:40 AM
10.42.0.211-23.208.168.108-52570-443-6,Grenada,Saint George's,12.05,-61.75,America/Grenada,29-08-23 23:00,27,80.6,1,9,89,50,29.7,85.4,27.9,5:57 AM,6:18 PM,6:18 PM,5:22 AM
203.205.158.62-10.42.0.42-80-52238-6,Guatemala,Guatemala City,14.62,-90.53,America/Guatemala,29-08-23 20:45,18.2,64.8,1,6.8,97,75,18.2,64.8,15.9,5:50 AM,6:15 PM,6:19 PM,5:19 AM
202.77.129.54-10.42.0.211-80-35024-6,Guinea,Conakry,9.51,-13.71,Africa/Conakry,30-08-23 3:00,25,77,0,3.6,94,75,27.8,82,24.3,6:46 AM,7:05 PM,6:57 PM,6:05 AM
10.42.0.151-54.197.254.190-50321-443-6,Guinea-Bissau,Bissau,11.85,-15.58,Africa/Bissau,30-08-23 3:00,24.8,76.6,0,15.8,89,72,27.4,81.3,20.2,6:52 AM,7:14 PM,7:07 PM,6:09 AM
10.42.0.211-10.42.0.1-13112-53-17,Guyana,Georgetown,6.8,-58.17,America/Guyana,29-08-23 23:00,26,78.8,1,3.6,94,25,29.1,84.4,10.6,5:46 AM,6:01 PM,5:58 PM,5:14 AM
10.42.0.211-64.71.142.124-48038-443-6,Haiti,Port-Au-Prince,18.54,-72.34,America/Port-au-Prince,29-08-23 23:00,30,86,1,28.1,70,0,39.7,103.5,30.4,6:34 AM,7:05 PM,7:09 PM,5:57 AM
203.205.190.40-10.42.0.42-80-52493-6,Vatican City,Vatican City,41.9,12.45,Europe/Rome,30-08-23 5:00,17,62.6,0,9,88,50,17,62.6,17.5,6:33 AM,7:48 PM,7:54 PM,5:18 AM
157.240.18.35-10.42.0.211-443-50711-6,Honduras,Tegucigalpa,14.1,-87.22,America/Tegucigalpa,29-08-23 21:00,25,77,1,3.6,74,25,28.2,82.7,0.1,5:37 AM,6:02 PM,6:05 PM,5:06 AM
10.42.0.211-103.235.46.211-33626-443-6,Hungary,Budapest,47.5,19.08,Europe/Budapest,30-08-23 5:00,16,60.8,0,6.1,100,0,16,60.8,35.4,5:59 AM,7:29 PM,7:39 PM,4:33 AM
10.42.0.151-10.42.0.1-35594-53-17,Iceland,Hella,63.83,-20.4,Atlantic/Reykjavik,30-08-23 3:00,10,50,0,18.7,91,91,7.5,45.5,57.9,5:58 AM,8:44 PM,9:17 PM,3:53 AM
175.100.207.233-10.42.0.151-443-52786-6,India,New Delhi,28.6,77.2,Asia/Kolkata,30-08-23 8:30,29,84.2,0,11.2,66,25,29.6,85.3,43.6,5:58 AM,6:45 PM,6:35 PM,4:44 AM
182.22.67.106-10.42.0.211-443-52904-6,Indonesia,Jakarta,-6.21,106.85,Asia/Jakarta,30-08-23 9:45,30,86,1,3.6,62,25,34.1,93.3,4.6,5:54 AM,5:53 PM,5:18 PM,5:05 AM
10.42.0.211-10.42.0.1-30081-53-17,Iran,Tehran,35.73,51.33,Asia/Tehran,30-08-23 6:30,22,71.6,0,19.1,57,50,22.9,73.2,8.1,5:35 AM,6:35 PM,6:33 PM,4:18 AM
172.217.6.228-10.42.0.211-443-43431-6,Iraq,Baghdad,33.34,44.39,Asia/Baghdad,30-08-23 5:45,28,82.4,0,4,35,0,27.2,80.9,74.4,5:35 AM,6:31 PM,6:27 PM,4:22 AM
10.42.0.1-10.42.0.42-53-31207-17,Ireland,Dublin,53.33,-6.25,Europe/Dublin,30-08-23 3:45,11,51.8,0,20.2,94,75,9.4,48.9,51.5,6:30 AM,8:20 PM,8:37 PM,4:59 AM
172.217.10.234-10.42.0.151-443-43533-6,Israel,Jerusalem,31.78,35.23,Asia/Jerusalem,30-08-23 5:45,25,77,0,11.2,79,25,26.8,80.3,31.5,6:13 AM,7:06 PM,7:03 PM,5:04 AM
10.42.0.211-65.52.108.74-43166-443-6,Italy,Rome,41.9,12.48,Europe/Rome,30-08-23 5:00,17,62.6,0,9,88,50,17,62.6,17.5,6:33 AM,7:48 PM,7:54 PM,5:17 AM
157.240.2.20-10.42.0.211-443-52870-6,Jamaica,Norman Gardens,17.97,-76.75,America/Jamaica,29-08-23 22:00,31,87.8,1,29.9,75,25,43.3,110,14.5,5:53 AM,6:22 PM,6:26 PM,5:17 AM
10.42.0.1-10.42.0.42-53-18651-17,Japan,Tokyo,35.69,139.69,Asia/Tokyo,30-08-23 12:00,34,93.2,1,11.2,53,25,40,104.1,20.4,5:11 AM,6:12 PM,6:01 PM,3:36 AM
10.42.0.211-31.13.80.5-46757-443-6,Jordan,Amman,31.95,35.93,Asia/Amman,30-08-23 6:00,21,69.8,1,3.6,69,0,21,69.8,37.2,6:10 AM,7:03 PM,7:00 PM,5:01 AM
239.255.255.250-10.42.0.1-1900-53105-17,Kazakhstan,Astana,51.18,71.43,Asia/Almaty,30-08-23 9:00,16,60.8,1,22,77,75,16,60.8,75.1,6:23 AM,8:06 PM,8:16 PM,4:36 AM
10.42.0.151-121.12.98.85-46773-80-6,Kenya,Nairobi,-1.28,36.82,Africa/Nairobi,30-08-23 5:45,16,60.8,1,19.1,82,75,16,60.8,35.1,6:31 AM,6:36 PM,6:15 PM,5:49 AM
182.22.24.124-10.42.0.42-443-36642-6,Kiribati,Tarawa,-0.88,169.53,Pacific/Tarawa,30-08-23 15:00,28.5,83.3,1,10.1,76,76,32.7,90.9,13.4,6:40 AM,6:45 PM,6:04 PM,5:36 AM
172.217.9.237-10.42.0.151-443-50294-6,Kuwait,Kuwait City,29.37,47.96,Asia/Kuwait,30-08-23 6:00,33.2,91.8,1,12.2,30,0,32.8,91,95.8,5:25 AM,6:13 PM,6:07 PM,4:15 AM
10.42.0.211-112.80.248.187-46314-80-6,Kyrghyzstan,Bishkek,42.87,74.6,Asia/Bishkek,30-08-23 9:00,23,73.4,0,3.6,21,20,22.7,72.9,20.9,6:23 AM,7:41 PM,7:42 PM,4:51 AM
10.42.0.211-10.42.0.1-51471-53-17,Indonesia,Laos,-8.18,114.32,Asia/Jakarta,30-08-23 10:00,27.5,81.5,1,7.9,65,10,29.5,85.1,51.5,5:26 AM,5:22 PM,4:44 PM,4:36 AM
10.42.0.211-104.97.95.172-45824-80-6,Latvia,Riga,56.95,24.1,Europe/Riga,30-08-23 6:00,16,60.8,0,6.8,88,0,16,60.8,50.8,6:21 AM,8:26 PM,8:47 PM,4:30 AM
10.42.0.211-10.42.0.1-15333-53-17,Lebanon,Beirut,33.87,35.51,Asia/Beirut,30-08-23 5:45,28,82.4,0,6.8,62,75,31.2,88.1,95.8,6:10 AM,7:07 PM,7:05 PM,4:59 AM
10.42.0.211-10.42.0.1-62972-53-17,Lesotho,Maseru,-29.32,27.48,Africa/Johannesburg,30-08-23 5:00,8,46.4,0,5.8,30,2,7.2,45,14.3,6:27 AM,5:54 PM,5:20 PM,6:09 AM
172.217.12.195-10.42.0.151-443-48902-6,Liberia,Monrovia,6.31,-10.8,Africa/Monrovia,30-08-23 3:00,23.3,73.9,0,6.8,96,100,25.7,78.3,44.4,6:36 AM,6:51 PM,6:41 PM,5:57 AM
10.42.0.151-54.72.9.51-46694-443-6,Thailand,Nan,18.78,100.78,Asia/Bangkok,30-08-23 10:00,26,78.8,0,3.6,94,75,30.6,87.1,7,6:02 AM,6:33 PM,6:14 PM,4:52 AM
172.217.12.206-10.42.0.151-443-42493-6,Liechtenstein,Vaduz,47.13,9.52,Europe/Vaduz,30-08-23 5:00,12,53.6,1,3.6,100,100,12.5,54.4,26.8,6:38 AM,8:06 PM,8:17 PM,5:15 AM
172.217.11.3-10.42.0.211-80-37042-6,Lithuania,Vilnius,54.68,25.32,Europe/Vilnius,30-08-23 5:45,22,71.6,1,15.1,73,25,24.5,76.1,48.6,6:21 AM,8:16 PM,8:34 PM,4:37 AM
172.217.3.100-10.42.0.42-443-54699-6,Luxembourg,Luxembourg,49.61,6.13,Europe/Luxembourg,30-08-23 5:00,11,51.8,1,3.6,100,50,11.1,52,1.5,6:47 AM,8:24 PM,8:36 PM,5:21 AM
10.42.0.42-46.150.167.172-46360-20408-17,Madagascar,Antananarivo,-18.92,47.52,Indian/Antananarivo,30-08-23 6:00,14,57.2,1,20.2,77,75,12.7,54.9,52.9,6:00 AM,5:42 PM,5:10 PM,5:30 AM
10.42.0.42-31.13.80.5-37658-443-6,Malawi,Lilongwe,-13.98,33.78,Africa/Blantyre,30-08-23 5:00,12.3,54.1,1,12.2,83,13,11.1,52,44.7,5:52 AM,5:40 PM,5:13 PM,5:19 AM
10.42.0.151-10.42.0.1-1688-53-17,Malaysia,Kuala Lumpur,3.17,101.7,Asia/Kuala_Lumpur,30-08-23 11:00,28,82.4,1,3.6,79,25,33.7,92.7,4.4,7:09 AM,7:20 PM,6:51 PM,6:12 AM
183.57.48.84-10.42.0.151-80-42111-6,Maldives,Farukolhufunadhoo,6.15,73.27,Indian/Maldives,30-08-23 8:00,27.7,81.9,1,17.6,72,48,30.6,87.1,23.6,6:00 AM,6:15 PM,5:53 PM,5:07 AM
10.42.0.211-10.42.0.1-42845-53-17,Mali,Bamako,12.65,-8,Africa/Bamako,30-08-23 3:00,23,73.4,0,3.6,100,25,25.4,77.7,1.3,6:21 AM,6:44 PM,6:36 PM,5:37 AM
10.42.0.211-103.235.46.212-57602-443-6,Malta,Valletta,35.9,14.51,Europe/Malta,30-08-23 4:45,23,73.4,1,11.2,69,0,25,77,88.7,6:32 AM,7:33 PM,7:35 PM,5:23 AM
172.217.6.234-10.42.0.211-443-43984-6,Marshall Islands,Majuro,7.1,171.38,Pacific/Majuro,30-08-23 15:00,31,87.8,0,22,71,100,39.2,102.6,29.7,6:27 AM,6:43 PM,6:06 PM,5:16 AM
172.217.10.110-10.42.0.151-443-38465-6,Mauritania,Nouakchott,18.09,-15.98,Africa/Nouakchott,30-08-23 3:00,27.8,82,1,17.6,78,90,31.6,88.9,42.9,6:49 AM,7:20 PM,7:16 PM,6:02 AM
172.217.8.4-10.42.0.42-443-56022-6,Mauritius,Port Louis,-20.16,57.5,Indian/Mauritius,30-08-23 7:00,22,71.6,1,13,78,50,24.5,76.1,52.2,6:21 AM,6:01 PM,5:27 PM,5:50 AM
10.42.0.151-10.42.0.1-11812-53-17,Mexico,Mexico City,19.43,-99.13,America/Mexico_City,29-08-23 21:00,21,69.8,0,19.1,49,25,21,69.8,40.1,6:21 AM,6:53 PM,7:00 PM,5:48 AM
183.79.215.137-10.42.0.211-443-46093-6,Micronesia,Palikir,6.92,158.15,Pacific/Pohnpei,30-08-23 14:00,28,82.4,1,11.2,89,100,32.9,91.2,9.2,6:20 AM,6:36 PM,6:01 PM,5:12 AM
10.42.0.211-54.243.99.83-41702-443-6,Russia,Chi-Chi-Erh,51.7,94.45,Asia/Krasnoyarsk,30-08-23 10:00,21.6,70.9,1,15.1,63,27,21.6,70.9,25.4,5:50 AM,7:35 PM,7:45 PM,3:56 AM
10.42.0.151-112.90.74.178-48646-80-6,Monaco,Monaco,43.73,7.42,Europe/Monaco,30-08-23 5:00,20,68,1,22,68,75,20,68,20,6:51 AM,8:10 PM,8:18 PM,5:34 AM
172.217.6.238-10.42.0.151-443-57851-6,Mongolia,Ulaanbaatar,47.92,106.92,Asia/Ulaanbaatar,30-08-23 11:00,18,64.4,1,3.6,60,0,18,64.4,36.5,6:07 AM,7:39 PM,7:43 PM,4:18 AM
10.42.0.1-10.42.0.42-53-24385-17,Montenegro,Podgorica,42.44,19.26,Europe/Podgorica,30-08-23 5:00,18,64.4,1,13,94,100,18,64.4,41.8,6:05 AM,7:21 PM,7:27 PM,4:47 AM
203.130.53.126-10.42.0.211-80-53634-6,Morocco,Rabat,34.03,-6.84,Africa/Casablanca,30-08-23 4:00,21,69.8,1,9,100,50,21,69.8,88,6:59 AM,7:56 PM,7:59 PM,5:57 AM
172.217.11.46-10.42.0.151-443-58188-6,Mozambique,Maputo,-25.97,32.59,Africa/Maputo,30-08-23 5:00,17,62.6,1,6.8,88,75,17,62.6,18.4,6:05 AM,5:37 PM,5:03 PM,5:43 AM
203.205.190.48-10.42.0.151-80-43717-6,Myanmar,Pathein,16.78,94.73,Asia/Yangon,30-08-23 9:30,29.2,84.6,1,8.6,73,65,33.9,93,36.5,5:57 AM,6:26 PM,6:07 PM,4:51 AM
173.194.175.188-10.42.0.151-5228-60704-6,Namibia,Windhoek,-22.57,17.08,Africa/Windhoek,30-08-23 5:00,16,60.8,1,19.1,48,0,16,60.8,41.8,7:04 AM,6:41 PM,6:12 PM,6:41 AM
10.42.0.151-31.13.71.37-49315-443-6,Turkey,Yaren,39.55,27.62,Europe/Istanbul,30-08-23 6:00,18,64.4,0,3.6,83,0,18,64.4,20.2,6:35 AM,7:45 PM,7:47 PM,5:19 AM
10.42.0.211-52.84.139.196-37660-80-6,Nepal,Kathmandu,27.72,85.32,Asia/Kathmandu,30-08-23 8:30,23,73.4,1,3.6,83,75,25.1,77.2,24.7,5:42 AM,6:27 PM,6:16 PM,4:26 AM
216.58.217.131-10.42.0.211-80-52871-6,Netherlands,Amsterdam,52.37,4.89,Europe/Amsterdam,30-08-23 5:00,15,59,1,13,82,25,14.1,57.4,60.1,6:48 AM,8:33 PM,8:49 PM,5:15 AM
10.42.0.211-118.93.218.8-60774-48047-17,New Zealand,Wellington,-41.3,174.78,Pacific/Auckland,30-08-23 15:00,13,55.4,0,33.1,72,50,10.3,50.5,60.1,6:50 AM,5:54 PM,4:35 PM,6:30 AM
10.42.0.211-112.80.248.187-38580-80-6,Nicaragua,Managua,12.15,-86.27,America/Managua,29-08-23 20:45,27,80.6,1,3.6,100,50,31,87.9,9.6,5:35 AM,5:57 PM,6:00 PM,5:04 AM
157.240.18.15-10.42.0.211-443-34815-6,Niger,Niamey,13.52,2.12,Africa/Niamey,30-08-23 4:00,29,84.2,1,19.1,75,0,31.4,88.6,23.3,6:40 AM,7:04 PM,6:56 PM,5:53 AM
172.217.10.34-10.42.0.211-443-47178-6,Nigeria,Abuja,9.18,7.18,Africa/Lagos,30-08-23 4:00,23,73.4,1,11.2,94,75,25.4,77.8,28.6,6:23 AM,6:41 PM,6:30 PM,5:38 AM
172.217.12.195-10.42.0.42-443-44613-6,North Korea,Pyongyang,39.02,125.75,Asia/Pyongyang,30-08-23 12:00,24.9,76.8,1,7.9,69,84,26.5,79.7,77.3,6:03 AM,7:12 PM,7:05 PM,4:26 AM
172.217.10.100-10.42.0.211-443-37291-6,Macedonia,Skopje,42,21.43,Europe/Skopje,30-08-23 4:45,16,60.8,1,3.6,88,25,16,60.8,70.8,5:57 AM,7:12 PM,7:17 PM,4:39 AM
172.217.3.106-10.42.0.42-443-38495-6,Norway,Oslo,59.92,10.75,Europe/Oslo,30-08-23 4:45,13,55.4,0,13,94,25,13.6,56.4,31.8,6:06 AM,8:27 PM,8:53 PM,4:09 AM
173.194.185.43-10.42.0.151-443-41262-6,Oman,Muscat,23.61,58.59,Asia/Muscat,30-08-23 7:00,30,86,1,6.8,89,0,36.6,98,64.4,5:47 AM,6:26 PM,6:15 PM,4:41 AM
182.22.25.252-10.42.0.42-80-40957-6,Pakistan,Islamabad,33.7,73.17,Asia/Karachi,30-08-23 7:45,25.7,78.3,1,7.6,63,8,27,80.6,98.7,5:40 AM,6:36 PM,6:30 PM,4:20 AM
192.229.173.173-10.42.0.211-80-55571-6,Palau,Adkip,7.36,134.51,Pacific/Palau,30-08-23 12:00,31,87.8,0,15.1,71,75,40.1,104.3,12.5,5:55 AM,6:11 PM,5:40 PM,4:49 AM
203.205.158.63-10.42.0.151-80-51960-6,Bolivia,National,-11.18,-67.08,America/La_Paz,29-08-23 23:00,29,84.2,0,3.6,45,17,29.4,84.9,31.5,6:33 AM,6:25 PM,6:17 PM,6:13 AM
10.42.0.42-23.61.10.242-59543-443-6,Panama,Panama City,8.97,-79.53,America/Panama,29-08-23 22:00,29,84.2,1,6.8,84,50,37,98.5,4.7,6:10 AM,6:27 PM,6:28 PM,5:40 AM
10.42.0.42-104.192.110.245-45915-443-6,Papua New Guinea,Port Moresby,-9.46,147.19,Pacific/Port_Moresby,30-08-23 13:00,30,86,0,19.1,55,25,33.9,92.9,69.4,6:15 AM,6:09 PM,5:26 PM,5:22 AM
203.205.158.63-10.42.0.211-80-51835-6,Paraguay,Carreria,-21.55,-58.12,America/Asuncion,29-08-23 23:00,22.8,73,1,6.5,58,40,24.8,76.6,25.8,6:04 AM,5:43 PM,5:29 PM,5:50 AM
203.205.158.34-10.42.0.211-80-44804-6,Peru,Lima,-12.05,-77.05,America/Lima,29-08-23 22:00,17.2,63,0,16.6,81,34,17.2,63,38.6,6:13 AM,6:05 PM,5:58 PM,5:56 AM
10.42.0.211-65.39.197.206-33354-443-6,Philippines,Manila,14.6,120.98,Asia/Manila,30-08-23 11:00,31,87.8,1,25.9,75,75,44.7,112.4,47.2,5:44 AM,6:10 PM,5:46 PM,4:34 AM
172.217.12.202-10.42.0.151-443-33445-6,Poland,Warsaw,52.25,21,Europe/Warsaw,30-08-23 5:00,18,64.4,1,13,94,75,18,64.4,28.6,5:44 AM,7:29 PM,7:44 PM,4:07 AM
10.42.0.42-76.13.28.196-59221-443-6,Portugal,Lisbon,38.72,-9.13,Europe/Lisbon,30-08-23 4:00,19,66.2,0,11.2,78,25,19,66.2,65.8,7:04 AM,8:10 PM,8:16 PM,5:57 AM
10.42.0.211-123.125.29.220-55334-80-6,Qatar,Doha,25.29,51.53,Asia/Qatar,30-08-23 6:00,34,93.2,1,15.1,75,0,43.8,110.8,57.2,5:14 AM,5:55 PM,5:47 PM,4:08 AM
10.42.0.211-10.42.0.1-54844-53-17,Romania,Bucharest,44.43,26.1,Europe/Bucharest,30-08-23 6:00,22,71.6,0,6.8,65,25,24.5,76.1,50.8,6:35 AM,7:57 PM,8:03 PM,5:13 AM
192.229.163.180-10.42.0.211-443-36633-6,Russia,Moscow,55.75,37.62,Europe/Moscow,30-08-23 5:45,14,57.2,1,11.2,88,100,14.7,58.4,0,5:30 AM,7:30 PM,7:48 PM,3:39 AM
10.42.0.42-31.13.80.5-38345-443-6,Rwanda,Kigali,-1.95,30.06,Africa/Kigali,30-08-23 5:00,18,64.4,0,9,60,50,18,64.4,20.2,5:59 AM,6:03 PM,5:43 PM,5:18 AM
10.42.0.42-42.236.125.112-48507-80-6,Saint Kitts and Nevis,Basseterre,17.3,-62.72,America/St_Kitts,29-08-23 23:00,29,84.2,1,20.2,84,0,34,93.2,16.1,5:57 AM,6:26 PM,6:27 PM,5:19 AM
10.42.0.211-123.125.29.220-32882-80-6,Saint Lucia,Castries,14,-61,America/St_Lucia,29-08-23 23:00,28,82.4,1,9,84,75,32.7,90.8,22.2,5:52 AM,6:17 PM,6:17 PM,5:16 AM
10.42.0.42-123.125.29.220-37387-80-6,Saint Vincent and the Grenadines,Kingstown,13.13,-61.22,America/St_Vincent,29-08-23 23:00,28.9,84,1,31,75,89,33.4,92.1,18.6,5:54 AM,6:17 PM,6:17 PM,5:18 AM
10.42.0.151-31.13.80.5-34422-443-6,Samoa,Apia,-13.83,-171.73,Pacific/Apia,30-08-23 16:00,30,86,1,9,75,75,36.9,98.5,52.9,6:33 AM,6:22 PM,5:28 PM,5:39 AM
163.177.151.166-10.42.0.211-443-43508-6,San Marino,San Marino,43.93,12.45,Europe/Rome,30-08-23 5:00,18,64.4,1,9,73,50,18,64.4,54.4,6:31 AM,7:50 PM,7:58 PM,5:12 AM
10.42.0.42-103.235.46.39-57909-80-6,Belgium,'S-Gravenwezel,51.27,4.55,Europe/Brussels,30-08-23 4:45,13,55.4,1,6.8,82,75,12.5,54.5,34.3,6:51 AM,8:33 PM,8:47 PM,5:21 AM
239.255.255.250-10.42.0.1-1900-52071-17,Saudi Arabia,Riyadh,24.64,46.77,Asia/Riyadh,30-08-23 5:45,30,86,1,11.2,33,0,28.2,82.8,98.7,5:33 AM,6:14 PM,6:05 PM,4:29 AM
175.100.207.232-10.42.0.211-80-48237-6,Senegal,Dakar,14.67,-17.44,Africa/Dakar,30-08-23 3:00,27.8,82,1,27.7,80,54,31.7,89.1,34.3,6:57 AM,7:23 PM,7:18 PM,6:13 AM
172.217.12.170-10.42.0.151-443-55773-6,Serbia,Belgrade,44.8,20.47,Europe/Belgrade,30-08-23 5:00,18,64.4,0,6.1,88,0,18,64.4,20,5:58 AM,7:20 PM,7:27 PM,4:35 AM
10.42.0.211-23.205.27.180-34039-80-6,Seychelles Islands,Victoria,-4.62,55.45,Indian/Mahe,30-08-23 7:00,26,78.8,1,19.1,79,25,28.8,83.9,54.4,6:18 AM,6:19 PM,5:54 PM,5:36 AM
10.42.0.151-54.192.38.212-41890-443-6,Sierra Leone,Freetown,8.49,-13.23,Africa/Freetown,30-08-23 3:00,23.4,74.1,1,13.3,96,100,25.8,78.4,21.3,6:45 AM,7:02 PM,6:54 PM,6:04 AM
172.217.3.106-10.42.0.211-443-43088-6,Singapore,Singapore,1.29,103.86,Asia/Singapore,30-08-23 10:45,29,84.2,0,6.1,79,75,33.7,92.6,1.3,7:01 AM,7:10 PM,6:39 PM,6:06 AM
209.85.232.113-10.42.0.42-443-46210-6,Slovakia,Bratislava,48.15,17.12,Europe/Bratislava,30-08-23 5:00,15,59,1,24.1,88,50,13.7,56.6,47.2,6:06 AM,7:38 PM,7:49 PM,4:39 AM
10.42.0.151-108.168.176.199-57691-5222-6,Slovenia,Ljubljana,46.06,14.51,Europe/Ljubljana,30-08-23 5:00,14,57.2,1,3.6,94,100,14.7,58.4,41.8,6:19 AM,7:45 PM,7:54 PM,4:57 AM
172.217.3.104-10.42.0.211-443-35964-6,Solomon Islands,Honiara,-9.43,159.95,Pacific/Guadalcanal,30-08-23 14:00,27.7,81.9,1,4.3,77,51,31.2,88.2,36.1,6:24 AM,6:18 PM,5:33 PM,5:29 AM
172.217.12.131-10.42.0.151-443-54528-6,Somalia,Mogadishu,2.07,45.37,Africa/Mogadishu,30-08-23 6:00,24.1,75.4,0,27.4,84,88,26.2,79.2,34.7,5:55 AM,6:04 PM,5:44 PM,5:09 AM
10.42.0.211-10.42.0.1-16867-53-17,South Africa,Pretoria,-25.75,28.19,Africa/Johannesburg,30-08-23 4:45,9,48.2,1,11.2,76,0,8.3,46.9,46.5,6:22 AM,5:54 PM,5:22 PM,6:00 AM
10.42.0.151-54.230.38.132-57574-443-6,South Korea,Seoul,37.57,127,Asia/Seoul,30-08-23 12:00,25,77,1,6.1,79,75,26.5,79.8,47.2,6:00 AM,7:05 PM,6:57 PM,4:24 AM
10.42.0.211-52.84.139.205-56502-443-6,Sudan,Juba,12.15,24.45,Africa/Khartoum,30-08-23 5:00,24,75.2,0,13.7,76,88,25.8,78.4,14.8,6:11 AM,6:34 PM,6:21 PM,5:22 AM
172.217.10.74-10.42.0.151-443-33691-6,Spain,Madrid,40.4,-3.68,Europe/Madrid,30-08-23 5:00,18,64.4,1,6.8,45,0,18,64.4,30.8,7:40 AM,8:50 PM,8:57 PM,6:29 AM
10.42.0.42-74.125.192.188-60156-5228-6,Sri Lanka,Colombo,6.93,79.85,Asia/Colombo,30-08-23 8:30,26,78.8,0,11.2,94,50,28.8,83.8,26.1,6:04 AM,6:19 PM,5:56 PM,5:08 AM
174.35.73.71-10.42.0.151-80-44106-6,Sudan,Khartoum,15.59,32.53,Africa/Khartoum,30-08-23 5:00,26.2,79.2,1,48.2,70,46,28.1,82.6,33.3,5:37 AM,6:04 PM,5:52 PM,4:43 AM
10.42.0.42-123.125.29.220-55729-80-6,Suriname,Paramaribo,5.83,-55.17,America/Paramaribo,30-08-23 0:00,27,80.6,1,6.8,89,25,32.3,90.1,23.3,6:34 AM,6:48 PM,6:44 PM,6:02 AM
175.100.207.231-10.42.0.211-443-59336-6,Sweden,Stockholm,59.33,18.05,Europe/Stockholm,30-08-23 5:00,14,57.2,1,3.6,94,75,14.7,58.4,47.9,5:39 AM,7:57 PM,8:21 PM,3:42 AM
10.42.0.151-31.13.69.197-60563-443-6,Switzerland,Bern,46.92,7.47,Europe/Zurich,30-08-23 4:45,10,50,0,6.8,100,100,10.3,50.5,28.6,6:46 AM,8:14 PM,8:24 PM,5:24 AM
10.42.0.1-10.42.0.42-53-10349-17,Syria,Damascus,33.5,36.3,Asia/Damascus,30-08-23 6:00,20,68,0,29.9,88,0,20,68,25,6:07 AM,7:03 PM,7:01 PM,4:56 AM
172.217.11.42-10.42.0.42-443-51810-6,Tajikistan,Dushanbe,38.56,68.77,Asia/Dushanbe,30-08-23 7:45,20,68,0,3.6,56,0,20,68,44.7,5:52 AM,6:59 PM,6:57 PM,4:28 AM
10.42.0.211-23.206.162.129-39557-80-6,Tanzania,Dodoma,-6.18,35.75,Africa/Dar_es_Salaam,30-08-23 6:00,18,64.4,1,15.1,68,25,18,64.4,40.1,6:38 AM,6:37 PM,6:14 PM,6:00 AM
183.79.250.251-10.42.0.151-443-57795-6,Thailand,Bangkok,13.75,100.52,Asia/Bangkok,30-08-23 10:00,31,87.8,0,6.8,71,25,34.9,94.8,2.9,6:06 AM,6:31 PM,6:09 PM,5:02 AM
172.217.10.10-10.42.0.151-443-60661-6,Indonesia,Murong Timor,-7.56,112.27,Asia/Jakarta,30-08-23 10:00,30.1,86.2,0,3.6,49,0,31.4,88.5,66.5,5:34 AM,5:31 PM,4:54 PM,4:44 AM
10.42.0.211-64.71.142.110-51251-80-6,Bulgaria,Lom,43.81,23.24,Europe/Bucharest,30-08-23 6:00,17.8,64,1,5.8,92,84,17.9,64.2,61.5,6:48 AM,8:07 PM,8:13 PM,5:27 AM
10.42.0.211-58.63.236.212-45632-443-6,Tonga,Nuku`Aloia,-21.13,-175.2,Pacific/Tongatapu,30-08-23 16:00,26,78.8,0,28.1,65,75,27.4,81.4,74.4,6:53 AM,6:31 PM,5:32 PM,6:05 AM
10.42.0.211-69.147.82.60-59565-443-6,Trinidad and Tobago,Port Of Spain,10.65,-61.52,America/Port_of_Spain,29-08-23 23:00,25,77,0,3.6,94,25,27.7,81.8,5.4,5:57 AM,6:17 PM,6:15 PM,5:23 AM
172.217.6.227-10.42.0.42-80-53285-6,Tunisia,Tunis,36.8,10.18,Africa/Tunis,30-08-23 4:00,22,71.6,0,6.1,78,50,24.6,76.2,30,5:49 AM,6:51 PM,6:54 PM,4:39 AM
10.42.0.211-54.239.17.113-41022-443-6,Turkey,Ankara,39.93,32.86,Europe/Istanbul,30-08-23 6:00,18,64.4,0,3.6,56,0,18,64.4,4.9,6:14 AM,7:24 PM,7:27 PM,4:56 AM
10.42.0.211-104.244.43.163-58414-443-6,Turkmenistan,Ashgabat,37.95,58.38,Asia/Ashgabat,30-08-23 8:00,24,75.2,0,19.1,57,100,24.8,76.7,85.8,6:34 AM,7:40 PM,7:39 PM,5:13 AM
172.217.10.234-10.42.0.151-443-51058-6,Tuvalu,Funafuti,-8.52,179.22,Pacific/Funafuti,30-08-23 15:00,28.7,83.7,1,22.3,77,64,33.4,92.1,11,6:06 AM,6:02 PM,5:14 PM,5:08 AM
172.217.10.98-10.42.0.151-443-48181-6,Uganda,Kampala,0.32,32.57,Africa/Kampala,30-08-23 6:00,21,69.8,0,6.1,83,50,21,69.8,4,6:47 AM,6:54 PM,6:34 PM,6:04 AM
10.42.0.211-10.42.0.1-58130-53-17,Ukraine,Lviv,49.83,24,Europe/Kiev,30-08-23 5:45,17.3,63.1,0,3.6,95,70,17.3,63.1,49.4,6:35 AM,8:13 PM,8:25 PM,5:04 AM
10.42.0.151-123.125.29.220-53046-80-6,United Arab Emirates,Abu Dhabi,24.47,54.37,Asia/Dubai,30-08-23 7:00,32,89.6,0,6.8,46,0,33.2,91.8,77.3,6:03 AM,6:43 PM,6:33 PM,4:57 AM
203.130.53.126-10.42.0.211-80-48804-6,United Kingdom,London,51.52,-0.11,Europe/London,30-08-23 4:00,11,51.8,0,9,94,50,9.7,49.5,50.8,6:09 AM,7:52 PM,8:07 PM,4:40 AM
10.42.0.211-64.71.142.96-45746-443-6,United States of America,Washington Park,46.6,-120.49,America/Los_Angeles,29-08-23 20:00,22.2,72,1,11.2,40,100,24.6,76.3,60.1,6:19 AM,7:45 PM,8:04 PM,5:29 AM
10.42.0.211-54.192.36.247-49231-443-6,Uruguay,Montevideo,-34.86,-56.17,America/Montevideo,30-08-23 0:00,9,48.2,0,11.2,100,0,7.1,44.7,25.4,7:07 AM,6:24 PM,6:03 PM,7:03 AM
10.42.0.211-64.71.142.110-60197-443-6,Uzbekistan,Tashkent,41.32,69.25,Asia/Tashkent,30-08-23 8:00,22,71.6,0,4,41,25,22.4,72.3,10.4,5:47 AM,7:00 PM,7:01 PM,4:18 AM
151.101.117.140-10.42.0.211-443-45531-6,Vanuatu,Port Vila,-17.73,168.32,Pacific/Efate,30-08-23 14:00,24,75.2,0,20.2,89,75,26.2,79.1,62.9,5:56 AM,5:40 PM,4:46 PM,5:08 AM
10.42.0.211-10.42.0.1-52514-53-17,Venezuela,Caracas,10.5,-66.92,America/Caracas,29-08-23 23:00,31,87.8,0,9,79,75,44.8,112.7,23.6,6:18 AM,6:38 PM,6:38 PM,5:46 AM
172.217.6.202-10.42.0.211-443-49160-6,Vietnam,Hanoi,21.03,105.85,Asia/Bangkok,30-08-23 10:00,31,87.8,1,15.1,55,0,34.2,93.5,75.8,5:40 AM,6:15 PM,5:57 PM,4:27 AM
10.42.0.151-52.84.134.181-58240-443-6,Yemen,Sanaa,15.35,44.21,Asia/Aden,30-08-23 6:00,18.8,65.8,0,4,40,43,18.8,65.8,41.8,5:51 AM,6:17 PM,6:04 PM,4:54 AM
203.205.158.60-10.42.0.42-80-58919-6,Zambia,Lusaka,-15.42,28.28,Africa/Lusaka,30-08-23 5:00,12.5,54.5,0,17.3,67,3,10.7,51.3,43.6,6:14 AM,6:01 PM,5:35 PM,5:44 AM
10.42.0.211-104.254.66.16-56354-80-6,Zimbabwe,Harare,-17.82,31.04,Africa/Harare,30-08-23 5:00,8.1,46.6,0,13.7,80,4,5.7,42.3,36.8,6:05 AM,5:49 PM,5:20 PM,5:36 AM
175.100.207.233-10.42.0.42-80-54198-6,Afghanistan,Kabul,34.52,69.18,Asia/Kabul,31-08-23 4:15,18.1,64.6,0,3.6,40,0,18.1,64.6,46.5,5:25 AM,6:23 PM,6:18 PM,4:05 AM
182.22.67.102-10.42.0.211-443-57059-6,Albania,Tirana,41.33,19.82,Europe/Tirane,31-08-23 1:45,20,68,1,3.6,100,75,20,68,72.2,6:05 AM,7:18 PM,7:23 PM,4:48 AM
172.217.6.206-10.42.0.42-443-38640-6,Algeria,Algiers,36.76,3.05,Africa/Algiers,31-08-23 0:45,23,73.4,1,4,78,25,25,77,81.5,6:17 AM,7:20 PM,7:23 PM,5:10 AM
10.42.0.42-58.63.236.212-50450-443-6,Andorra,Andorra La Vella,42.5,1.52,Europe/Andorra,31-08-23 1:45,5.1,41.2,0,3.6,95,46,5.1,41.2,27.2,7:17 AM,8:32 PM,8:39 PM,6:02 AM
172.217.10.238-10.42.0.151-443-35540-6,Angola,Luanda,-8.84,13.23,Africa/Luanda,31-08-23 0:45,22,71.6,0,6.8,88,75,24.5,76.1,66.5,6:10 AM,6:05 PM,5:45 PM,5:37 AM
180.149.136.247-10.42.0.211-80-50686-6,Antigua and Barbuda,Saint John's,17.12,-61.85,America/Antigua,30-08-23 19:45,29,84.2,1,15.1,79,50,34.1,93.4,25.4,5:54 AM,6:22 PM,6:24 PM,5:16 AM
157.240.2.35-10.42.0.211-443-47200-6,Argentina,Buenos Aires,-34.59,-58.67,America/Argentina/Buenos_Aires,30-08-23 20:45,16,60.8,1,3.6,51,0,16,60.8,42.6,7:17 AM,6:35 PM,6:14 PM,7:13 AM
172.217.3.102-10.42.0.211-443-41727-6,Armenia,Yerevan,40.18,44.51,Asia/Yerevan,31-08-23 3:45,21,69.8,1,9,46,0,21,69.8,20.6,6:27 AM,7:38 PM,7:40 PM,5:06 AM
203.205.158.63-10.42.0.151-80-36742-6,Australia,Canberra,-35.28,149.22,Australia/Sydney,31-08-23 9:45,8,46.4,1,6.8,100,75,8,46.5,33.6,6:26 AM,5:42 PM,4:36 PM,6:00 AM
10.42.0.151-31.13.71.1-57733-443-6,Austria,Vienna,48.2,16.37,Europe/Vienna,31-08-23 1:45,17,62.6,0,13,63,0,17,62.6,21.5,6:09 AM,7:41 PM,7:52 PM,4:42 AM
157.240.18.36-10.42.0.211-443-54595-6,Azerbaijan,Baku,40.4,49.88,Asia/Baku,31-08-23 3:45,22.5,72.5,0,12.6,57,18,24.7,76.5,55.8,6:05 AM,7:17 PM,7:18 PM,4:43 AM
10.42.0.151-10.42.0.1-36720-53-17,Bahamas,Nassau,25.08,-77.35,America/Nassau,30-08-23 19:45,31,87.8,0,13,75,75,40.7,105.3,42.2,6:49 AM,7:31 PM,7:37 PM,6:09 AM
10.42.0.151-72.21.206.141-36649-443-6,Bahrain,Manama,26.24,50.58,Asia/Bahrain,31-08-23 2:45,34,93.2,0,13,71,0,45.3,113.6,150.2,5:17 AM,6:00 PM,5:52 PM,4:10 AM
10.42.0.151-10.42.0.1-50277-53-17,Bangladesh,Dhaka,23.72,90.41,Asia/Dhaka,31-08-23 5:45,29.6,85.3,0,4,70,28,34,93.2,29,5:40 AM,6:18 PM,6:04 PM,4:27 AM
151.101.21.140-10.42.0.211-443-33377-6,Barbados,Bridgetown,13.1,-59.62,America/Barbados,30-08-23 19:45,28,82.4,0,24.1,89,50,32.1,89.8,21.5,5:47 AM,6:11 PM,6:10 PM,5:12 AM
10.42.0.151-10.42.0.1-20297-53-17,Belarus,Minsk,53.9,27.57,Europe/Minsk,31-08-23 2:45,18,64.4,0,15.1,100,37,18,64.4,52.2,6:14 AM,8:06 PM,8:22 PM,4:31 AM
10.42.0.211-10.42.0.1-9300-53-17,Belgium,Brussels,50.83,4.33,Europe/Brussels,31-08-23 1:45,11,51.8,0,13,94,0,9.5,49.2,39.3,6:53 AM,8:33 PM,8:47 PM,5:24 AM
172.217.12.202-10.42.0.211-443-44417-6,Belize,Belmopan,17.25,-88.77,America/Belize,30-08-23 17:45,29,84.2,1,6.1,89,25,35,95.1,11.4,5:41 AM,6:10 PM,6:15 PM,5:08 AM
172.217.11.3-10.42.0.151-443-52237-6,Benin,Porto-Novo,6.48,2.62,Africa/Porto-Novo,31-08-23 0:45,26,78.8,0,19.1,89,50,29.8,85.7,36.1,6:43 AM,6:58 PM,6:46 PM,6:01 AM
172.217.6.206-10.42.0.151-443-52840-6,Bhutan,Thimphu,27.48,89.6,Asia/Thimphu,31-08-23 5:45,10.9,51.6,0,3.6,97,68,11.2,52.2,30.8,5:40 AM,6:25 PM,6:13 PM,4:24 AM
172.217.3.99-10.42.0.151-443-45950-6,Bolivia,Sucre,-19.04,-65.26,America/La_Paz,30-08-23 19:45,19.5,67.1,0,9.4,34,0,19.5,67.1,22.2,6:31 AM,6:13 PM,6:01 PM,6:16 AM
180.149.136.194-10.42.0.211-80-57339-6,Bosnia and Herzegovina,Sarajevo,43.85,18.38,Europe/Sarajevo,31-08-23 1:45,13,55.4,0,3.6,100,0,13,55.3,11.6,6:07 AM,7:27 PM,7:34 PM,4:47 AM
172.217.10.110-10.42.0.211-443-53532-6,Botswana,Gaborone,-24.65,25.91,Africa/Gaborone,31-08-23 1:45,10,50,0,15.1,58,0,10.1,50.2,40.4,6:30 AM,6:04 PM,5:33 PM,6:08 AM
10.42.0.211-23.194.182.157-51608-443-6,Brazil,Bras,-2.08,-58.17,America/Manaus,30-08-23 19:45,32.3,90.1,0,4.7,30,15,31.6,88.9,40.8,5:52 AM,5:55 PM,5:49 PM,5:25 AM
182.22.24.124-10.42.0.211-443-33062-6,Brunei Darussalam,Bandar Seri Begawan,4.88,114.93,Asia/Brunei,31-08-23 7:45,26,78.8,0,6.8,94,75,29.5,85.1,4.5,6:14 AM,6:27 PM,5:58 PM,5:15 AM
10.42.0.211-104.119.40.238-35625-443-6,Bulgaria,Sofia,42.68,23.32,Europe/Sofia,31-08-23 2:45,16,60.8,0,3.6,77,25,16,60.8,13.2,6:49 AM,8:05 PM,8:11 PM,5:30 AM
180.76.176.11-10.42.0.211-80-56151-6,Burkina Faso,Ouagadougou,12.37,-1.52,Africa/Ouagadougou,30-08-23 23:45,24.1,75.4,1,17.6,86,79,26.2,79.2,0.9,5:56 AM,6:18 PM,6:09 PM,5:10 AM
172.217.3.110-10.42.0.151-443-44989-6,Burundi,Bujumbura,-3.38,29.36,Africa/Bujumbura,31-08-23 1:45,22.6,72.7,0,3.6,55,6,24.7,76.5,17,6:02 AM,6:04 PM,5:44 PM,5:23 AM
10.42.0.211-10.42.0.1-59595-53-17,Madagascar,Ivory,-24.37,46.45,Indian/Antananarivo,31-08-23 2:45,15.8,60.4,0,7.6,72,0,15.8,60.4,52.9,6:08 AM,5:42 PM,5:07 PM,5:43 AM
10.42.0.151-10.42.0.1-62080-53-17,Cape Verde,Praia,14.93,-23.51,Atlantic/Cape_Verde,30-08-23 22:45,27,80.6,0,15.1,89,75,31.2,88.1,49.4,6:21 AM,6:48 PM,6:43 PM,5:38 AM
172.217.5.227-10.42.0.151-80-52601-6,Cambodia,Phnom Penh,11.55,104.92,Asia/Phnom_Penh,31-08-23 6:45,28,82.4,0,3.6,84,75,32.7,90.9,21.3,5:50 AM,6:12 PM,5:48 PM,4:46 AM
10.42.0.211-10.42.0.1-5236-53-17,Cameroon,Bafoussam,5.47,10.42,Africa/Douala,31-08-23 0:45,17.1,62.8,0,5.4,97,61,17.1,62.8,12.2,6:12 AM,6:26 PM,6:12 PM,5:30 AM
10.42.0.211-10.42.0.1-31211-53-17,Canada,Ottawa,45.42,-75.7,America/Toronto,30-08-23 19:45,16,60.8,0,28.1,77,75,16,60.8,31.5,6:21 AM,7:45 PM,8:00 PM,5:22 AM
172.217.7.196-10.42.0.151-443-42131-6,Central African Republic,Bangui,4.37,18.58,Africa/Bangui,31-08-23 0:45,25,77,0,3.6,89,0,27.7,81.8,0,5:41 AM,5:53 PM,5:37 PM,4:57 AM
183.79.250.251-10.42.0.151-443-35993-6,Chad,N'djamena,12.11,15.05,Africa/Douala,31-08-23 0:45,27,80.6,1,6.1,89,0,30,86.1,12.3,5:49 AM,6:11 PM,6:00 PM,5:01 AM
239.255.255.250-10.42.0.151-1900-57437-17,Chile,Santiago,-33.45,-70.67,America/Santiago,30-08-23 19:45,14,57.2,1,13,63,0,14.6,58.2,3.4,7:03 AM,6:24 PM,6:06 PM,7:00 AM
10.42.0.211-66.198.24.243-57410-80-6,China,Beijing,39.93,116.39,Asia/Shanghai,31-08-23 7:45,21,69.8,1,6.8,94,0,21,69.8,0.2,5:40 AM,6:50 PM,6:45 PM,4:03 AM
172.217.3.106-10.42.0.42-443-40846-6,Bulgaria,Bogot,43.32,24.7,Europe/Sofia,31-08-23 2:45,20.2,68.4,0,4.3,69,13,20.2,68.4,38.6,6:42 AM,8:01 PM,8:06 PM,5:22 AM
208.185.50.65-10.42.0.211-443-40195-6,Comoros,Moroni,-11.7,43.24,Indian/Comoro,31-08-23 2:45,20.8,69.4,1,11.9,71,2,20.8,69.4,41.5,6:12 AM,6:04 PM,5:37 PM,5:37 AM
172.217.11.2-10.42.0.211-443-37220-6,Congo,Brazzaville,-4.26,15.28,Africa/Brazzaville,31-08-23 0:45,27.1,80.8,0,10.8,48,8,27.6,81.7,32.2,5:59 AM,6:00 PM,5:42 PM,5:23 AM
10.42.0.211-103.7.30.118-57944-80-6,Costa Rica,San Juan,9.97,-84.08,America/Costa_Rica,30-08-23 17:45,25,77,0,9,83,75,28.1,82.6,65.1,5:28 AM,5:47 PM,5:49 PM,4:58 AM
10.42.0.211-10.42.0.1-27667-53-17,Croatia,Zagreb,45.8,16,Europe/Zagreb,31-08-23 1:45,17,62.6,1,9,88,75,17,62.6,24.7,6:14 AM,7:39 PM,7:48 PM,4:51 AM
10.42.0.151-10.42.0.1-21502-53-17,Cuba,Havana,23.13,-82.36,America/Havana,30-08-23 19:45,31,87.8,1,16.9,71,50,41.9,107.4,28.6,7:11 AM,7:49 PM,7:55 PM,6:33 AM
10.42.0.211-64.71.142.96-45731-80-6,Cyprus,Nicosia,35.17,33.37,Asia/Famagusta,31-08-23 2:45,25,77,0,3.6,83,0,26.9,80.5,88,6:17 AM,7:17 PM,7:16 PM,5:05 AM
172.217.10.131-10.42.0.211-443-48406-6,Czech Republic,Prague,50.08,14.47,Europe/Prague,31-08-23 1:45,14,57.2,0,15.1,88,25,13.5,56.2,19.1,6:13 AM,7:51 PM,8:04 PM,4:43 AM
10.42.0.151-52.84.134.181-58239-443-6,Democratic Republic of Congo,Kinshasa,-4.3,15.3,Africa/Brazzaville,31-08-23 0:45,26.6,79.9,0,10.1,50,8,27.2,81,32.2,5:59 AM,6:00 PM,5:42 PM,5:23 AM
10.42.0.151-23.206.193.4-36573-80-6,Denmark,Copenhagen,55.67,12.58,Europe/Copenhagen,31-08-23 1:45,14,57.2,0,4,88,0,12.8,55,70.1,6:10 AM,8:09 PM,8:29 PM,4:27 AM
10.42.0.211-64.71.142.110-41778-443-6,Djibouti,Djibouti,11.6,43.15,Africa/Djibouti,31-08-23 2:45,32.5,90.5,1,13,55,10,37.1,98.8,35.4,5:57 AM,6:19 PM,6:04 PM,5:05 AM
10.42.0.151-104.244.43.195-40155-443-6,Dominica,Roseau,15.3,-61.4,America/Dominica,30-08-23 19:45,26,78.8,1,4,100,50,28.4,83,21.6,5:53 AM,6:19 PM,6:20 PM,5:16 AM
172.217.10.238-10.42.0.42-443-56763-6,Dominican Republic,Santo Domingo,18.47,-69.9,America/Santo_Domingo,30-08-23 19:45,29,84.2,0,9,84,50,34.2,93.6,0.2,6:24 AM,6:56 PM,6:58 PM,5:47 AM
10.42.0.211-64.71.142.95-53762-443-6,Ecuador,Quito,-0.22,-78.5,America/Guayaquil,30-08-23 18:45,17.5,63.5,0,8.3,55,85,17.5,63.5,40.8,6:11 AM,6:18 PM,6:15 PM,5:47 AM
10.42.0.211-10.42.0.1-30249-53-17,Egypt,Cairo,30.05,31.25,Africa/Cairo,31-08-23 2:45,28,82.4,0,9,62,0,29.9,85.9,39,6:30 AM,7:21 PM,7:17 PM,5:25 AM
180.149.136.247-10.42.0.211-80-59415-6,El Salvador,San Salvador,13.71,-89.2,America/El_Salvador,30-08-23 17:45,30,86,1,6.8,79,25,40.4,104.8,15.4,5:45 AM,6:09 PM,6:13 PM,5:14 AM
10.42.0.151-108.174.11.1-39779-443-6,Equatorial Guinea,Malabo,3.75,8.78,Africa/Malabo,31-08-23 0:45,24.6,76.3,0,14.4,87,48,26.9,80.4,25,6:20 AM,6:31 PM,6:17 PM,5:39 AM
180.149.136.194-10.42.0.42-80-39367-6,Eritrea,Asmara,15.33,38.93,Africa/Asmara,31-08-23 2:45,17.8,64,0,6.5,65,74,17.8,64,37.6,6:11 AM,6:38 PM,6:25 PM,5:17 AM
10.42.0.211-10.42.0.1-37485-53-17,Estonia,Tallinn,59.43,24.73,Europe/Tallinn,31-08-23 2:45,18,64.4,1,6.8,100,75,18,64.4,33.3,6:12 AM,8:30 PM,8:55 PM,4:12 AM
8.8.8.8-10.42.0.211-53-44564-17,Swaziland,Mbabane,-26.32,31.13,Africa/Mbabane,31-08-23 1:45,10.5,50.9,1,5,77,0,10.3,50.5,49.4,6:11 AM,5:42 PM,5:08 PM,5:49 AM
172.217.6.206-10.42.0.151-443-45028-6,Ethiopia,Addis Ababa,9.03,38.7,Africa/Addis_Ababa,31-08-23 2:45,13,55.4,0,9,100,75,13.6,56.4,10.4,6:17 AM,6:35 PM,6:19 PM,5:27 AM
172.217.6.206-10.42.0.42-443-58124-6,Fiji Islands,Suva,-18.13,178.42,Pacific/Fiji,31-08-23 11:45,26,78.8,1,20.2,79,75,28.7,83.7,50.1,6:16 AM,5:59 PM,5:03 PM,5:27 AM
172.217.11.3-10.42.0.211-80-58091-6,Finland,Helsinki,60.18,24.93,Europe/Helsinki,31-08-23 2:45,18,64.4,1,6.8,100,100,18,64.4,27.2,6:09 AM,8:31 PM,8:57 PM,4:06 AM
10.42.0.151-106.39.169.66-45237-80-6,France,Paris,48.87,2.33,Europe/Paris,31-08-23 1:45,14,57.2,1,3.6,72,100,13.8,56.8,40.4,7:04 AM,8:38 PM,8:50 PM,5:40 AM
10.42.0.211-95.213.11.133-35732-80-6,Gabon,Libreville,0.38,9.45,Africa/Libreville,31-08-23 0:45,25,77,1,15.1,89,50,27.6,81.7,33.3,6:19 AM,6:26 PM,6:11 PM,5:41 AM
10.42.0.211-10.42.0.1-53942-53-17,Gambia,Banjul,13.45,-16.58,Africa/Banjul,30-08-23 23:45,25,77,1,3.6,100,75,27.2,81,21.8,6:55 AM,7:19 PM,7:13 PM,6:11 AM
192.229.173.173-10.42.0.42-443-55320-6,Georgia,Tbilisi,41.73,44.79,Asia/Tbilisi,31-08-23 3:45,19,66.2,1,3.6,83,0,19,66.2,47.2,6:24 AM,7:39 PM,7:41 PM,5:01 AM
10.42.0.211-10.42.0.1-19711-53-17,Germany,Berlin,52.52,13.4,Europe/Berlin,31-08-23 1:45,14,57.2,0,6.8,88,0,13.3,56,12.7,6:13 AM,8:00 PM,8:15 PM,4:38 AM
10.42.0.151-23.194.181.192-55809-443-6,Ghana,Accra,5.55,-0.22,Africa/Accra,30-08-23 23:45,26,78.8,0,15.1,89,100,29.5,85,31.5,5:55 AM,6:08 PM,5:57 PM,5:14 AM
198.11.188.75-10.42.0.211-443-45885-6,Greece,Athens,37.98,23.72,Europe/Athens,31-08-23 2:45,26,78.8,1,3.6,42,0,26.7,80,98.7,6:53 AM,7:58 PM,8:00 PM,5:40 AM
172.217.11.35-10.42.0.151-443-39644-6,Grenada,Saint George's,12.05,-61.75,America/Grenada,30-08-23 19:45,29,84.2,0,20.2,84,25,35.2,95.4,19.7,5:57 AM,6:18 PM,6:18 PM,5:22 AM
10.42.0.211-54.235.136.174-36792-443-6,Guatemala,Guatemala City,14.62,-90.53,America/Guatemala,30-08-23 17:45,25,77,1,11.2,61,25,27.9,82.2,40.1,5:50 AM,6:15 PM,6:19 PM,5:19 AM
10.42.0.151-10.42.0.1-52014-53-17,Guinea,Conakry,9.51,-13.71,Africa/Conakry,30-08-23 23:45,27,80.6,0,3.6,89,50,30.6,87.1,37.9,6:46 AM,7:05 PM,6:57 PM,6:05 AM
10.42.0.211-59.38.112.48-34266-443-6,Guinea-Bissau,Bissau,11.85,-15.58,Africa/Bissau,30-08-23 23:45,25,77,0,3.6,94,50,27.4,81.2,20,6:52 AM,7:14 PM,7:07 PM,6:09 AM
202.77.129.161-10.42.0.211-80-48856-6,Guyana,Georgetown,6.8,-58.17,America/Guyana,30-08-23 19:45,28,82.4,1,6.8,84,25,32.5,90.5,11.6,5:46 AM,6:01 PM,5:58 PM,5:14 AM
10.42.0.211-10.42.0.1-10862-53-17,Haiti,Port-Au-Prince,18.54,-72.34,America/Port-au-Prince,30-08-23 19:45,27.7,81.9,1,3.6,63,100,29.6,85.3,26.5,6:34 AM,7:05 PM,7:09 PM,5:57 AM
10.42.0.211-106.39.162.36-50140-80-6,Vatican City,Vatican City,41.9,12.45,Europe/Rome,31-08-23 1:45,20,68,1,9,73,25,20,68,2,6:33 AM,7:48 PM,7:54 PM,5:18 AM
239.255.255.250-10.42.0.1-1900-35826-17,Honduras,Tegucigalpa,14.1,-87.22,America/Tegucigalpa,30-08-23 17:45,29,84.2,0,6.1,55,25,36.2,97.1,62.9,5:37 AM,6:02 PM,6:05 PM,5:06 AM
10.42.0.151-52.94.232.33-41263-443-6,Hungary,Budapest,47.5,19.08,Europe/Budapest,31-08-23 1:45,15,59,0,6.8,94,0,15.7,60.2,4,5:59 AM,7:29 PM,7:39 PM,4:33 AM
172.217.9.234-10.42.0.42-443-36668-6,Iceland,Hella,63.83,-20.4,Atlantic/Reykjavik,30-08-23 23:45,10.2,50.4,1,19.1,88,100,7.8,46,64.4,5:58 AM,8:44 PM,9:17 PM,3:53 AM
10.42.0.42-47.93.76.169-47223-80-6,India,New Delhi,28.6,77.2,Asia/Kolkata,31-08-23 5:15,29,84.2,1,3.6,70,25,30.4,86.8,10,5:58 AM,6:45 PM,6:35 PM,4:44 AM
172.217.10.110-10.42.0.151-443-38017-6,Indonesia,Jakarta,-6.21,106.85,Asia/Jakarta,31-08-23 6:45,24,75.2,1,6.1,94,25,25.7,78.2,0,5:54 AM,5:53 PM,5:18 PM,5:05 AM
169.45.214.248-10.42.0.151-5222-56112-6,Iran,Tehran,35.73,51.33,Asia/Tehran,31-08-23 3:15,23,73.4,1,19.1,47,50,24,75.2,32.5,5:35 AM,6:35 PM,6:33 PM,4:18 AM
172.217.11.14-10.42.0.211-443-44615-6,Iraq,Baghdad,33.34,44.39,Asia/Baghdad,31-08-23 2:45,31,87.8,1,4,29,0,29.8,85.6,71.5,5:35 AM,6:31 PM,6:27 PM,4:22 AM
10.42.0.211-104.192.108.27-42241-80-6,Ireland,Dublin,53.33,-6.25,Europe/Dublin,31-08-23 0:45,13,55.4,0,6.1,82,75,12.8,55.1,50.8,6:30 AM,8:20 PM,8:37 PM,4:59 AM
10.42.0.211-52.71.229.141-53237-443-6,Israel,Jerusalem,31.78,35.23,Asia/Jerusalem,31-08-23 2:45,25,77,0,3.6,83,0,25.6,78.1,20.2,6:13 AM,7:06 PM,7:03 PM,5:04 AM
203.130.53.126-10.42.0.151-80-53625-6,Italy,Rome,41.9,12.48,Europe/Rome,31-08-23 1:45,20,68,1,9,73,25,20,68,2,6:33 AM,7:48 PM,7:54 PM,5:17 AM
172.217.3.110-10.42.0.151-443-50648-6,Jamaica,Norman Gardens,17.97,-76.75,America/Jamaica,30-08-23 18:45,32,89.6,0,31,67,25,44,111.2,28.6,5:53 AM,6:22 PM,6:26 PM,5:17 AM
216.58.219.238-10.42.0.151-443-33828-6,Japan,Tokyo,35.69,139.69,Asia/Tokyo,31-08-23 8:45,30,86,1,13,66,25,34.2,93.6,15.9,5:11 AM,6:12 PM,6:01 PM,3:36 AM
162.208.22.39-10.42.0.42-443-55492-6,Jordan,Amman,31.95,35.93,Asia/Amman,31-08-23 2:45,24,75.2,1,3.6,36,0,24.9,76.8,52.2,6:10 AM,7:03 PM,7:00 PM,5:01 AM
10.42.0.211-103.235.46.39-51712-80-6,Kazakhstan,Astana,51.18,71.43,Asia/Almaty,31-08-23 5:45,8,46.4,0,25.9,76,0,4.8,40.6,44,6:23 AM,8:06 PM,8:16 PM,4:36 AM
10.42.0.1-10.42.0.42-53-9296-17,Kenya,Nairobi,-1.28,36.82,Africa/Nairobi,31-08-23 2:45,17,62.6,1,6.8,77,75,17,62.6,35.8,6:31 AM,6:36 PM,6:15 PM,5:49 AM
10.42.0.151-31.13.71.3-43168-443-6,Kiribati,Tarawa,-0.88,169.53,Pacific/Tarawa,31-08-23 11:45,29.1,84.4,1,15.5,73,75,33.6,92.5,8.6,6:40 AM,6:45 PM,6:04 PM,5:36 AM
10.42.0.211-10.42.0.1-62089-53-17,Kuwait,Kuwait City,29.37,47.96,Asia/Kuwait,31-08-23 2:45,34.7,94.5,1,19.1,35,0,36.2,97.2,144.5,5:25 AM,6:13 PM,6:07 PM,4:15 AM
10.42.0.211-66.198.24.243-46984-80-6,Kyrghyzstan,Bishkek,42.87,74.6,Asia/Bishkek,31-08-23 5:45,15.5,59.9,1,9.4,72,94,15.5,59.9,73,6:23 AM,7:41 PM,7:42 PM,4:51 AM
202.77.129.161-10.42.0.42-80-45254-6,Indonesia,Laos,-8.18,114.32,Asia/Jakarta,31-08-23 6:45,20.6,69.1,1,4.3,93,46,20.6,69.1,21.8,5:26 AM,5:22 PM,4:44 PM,4:36 AM
172.217.9.238-10.42.0.211-443-52710-6,Latvia,Riga,56.95,24.1,Europe/Riga,31-08-23 2:45,19,66.2,1,6.8,94,100,19,66.2,28.6,6:21 AM,8:26 PM,8:47 PM,4:30 AM
10.42.0.211-23.7.36.183-36310-80-6,Lebanon,Beirut,33.87,35.51,Asia/Beirut,31-08-23 2:45,27,80.6,1,6.8,79,75,29.5,85.2,83.7,6:10 AM,7:07 PM,7:05 PM,4:59 AM
10.42.0.211-121.12.98.62-55456-80-6,Lesotho,Maseru,-29.32,27.48,Africa/Johannesburg,31-08-23 1:45,10.6,51.1,0,3.6,33,0,11,51.8,29.3,6:27 AM,5:54 PM,5:20 PM,6:09 AM
10.42.0.211-123.125.29.220-41298-80-6,Liberia,Monrovia,6.31,-10.8,Africa/Monrovia,30-08-23 23:45,26,78.8,1,3.6,89,75,29.6,85.3,36.5,6:36 AM,6:51 PM,6:41 PM,5:57 AM
182.22.24.124-10.42.0.211-443-53919-6,Thailand,Nan,18.78,100.78,Asia/Bangkok,31-08-23 6:45,25,77,0,4,100,75,28.5,83.3,19.1,6:02 AM,6:33 PM,6:14 PM,4:52 AM
216.58.219.228-10.42.0.211-443-53562-6,Liechtenstein,Vaduz,47.13,9.52,Europe/Vaduz,31-08-23 1:45,16,60.8,0,3.6,68,75,16,60.8,33.3,6:38 AM,8:06 PM,8:17 PM,5:15 AM
10.42.0.151-10.42.0.1-52463-53-17,Lithuania,Vilnius,54.68,25.32,Europe/Vilnius,31-08-23 2:45,19,66.2,0,16.9,94,100,19,66.2,33.3,6:21 AM,8:16 PM,8:34 PM,4:37 AM
10.42.0.1-10.42.0.42-53-24324-17,Luxembourg,Luxembourg,49.61,6.13,Europe/Luxembourg,31-08-23 1:45,10,50,1,13,94,0,9.3,48.7,38.6,6:47 AM,8:24 PM,8:36 PM,5:21 AM
10.42.0.42-110.147.148.180-46360-45927-17,Madagascar,Antananarivo,-18.92,47.52,Indian/Antananarivo,31-08-23 2:45,13,55.4,0,20.2,77,75,11.9,53.5,45.1,6:00 AM,5:42 PM,5:10 PM,5:30 AM
239.255.255.250-10.42.0.1-1900-54922-17,Malawi,Lilongwe,-13.98,33.78,Africa/Blantyre,31-08-23 1:45,13,55.4,1,11.2,72,0,12.2,54,43.3,5:52 AM,5:40 PM,5:13 PM,5:19 AM
172.217.10.74-10.42.0.211-443-47806-6,Malaysia,Kuala Lumpur,3.17,101.7,Asia/Kuala_Lumpur,31-08-23 7:45,26,78.8,0,3.6,89,25,30,85.9,0,7:09 AM,7:20 PM,6:51 PM,6:12 AM
172.217.10.225-10.42.0.151-443-45440-6,Maldives,Farukolhufunadhoo,6.15,73.27,Indian/Maldives,31-08-23 4:45,26,78.8,1,32.4,85,84,29.1,84.4,34.7,6:00 AM,6:15 PM,5:53 PM,5:07 AM
172.217.10.74-10.42.0.42-443-44597-6,Mali,Bamako,12.65,-8,Africa/Bamako,30-08-23 23:45,26,78.8,1,4,89,25,28.2,82.8,2.7,6:21 AM,6:44 PM,6:36 PM,5:37 AM
10.42.0.211-66.102.255.44-43112-443-6,Malta,Valletta,35.9,14.51,Europe/Malta,31-08-23 1:45,24,75.2,1,13,83,25,25.6,78.1,80.8,6:32 AM,7:33 PM,7:35 PM,5:23 AM
10.42.0.42-66.102.255.45-57156-80-6,Marshall Islands,Majuro,7.1,171.38,Pacific/Majuro,31-08-23 11:45,31,87.8,1,9,71,75,39.5,103,29.3,6:27 AM,6:43 PM,6:06 PM,5:16 AM
10.42.0.211-77.234.44.200-54511-80-6,Mauritania,Nouakchott,18.09,-15.98,Africa/Nouakchott,30-08-23 23:45,26.3,79.3,0,30.6,84,88,29.4,84.9,35.4,6:49 AM,7:20 PM,7:16 PM,6:02 AM
10.42.0.211-10.42.0.1-22923-53-17,Mauritius,Port Louis,-20.16,57.5,Indian/Mauritius,31-08-23 3:45,21,69.8,1,15.1,69,25,21,69.8,46.5,6:21 AM,6:01 PM,5:27 PM,5:50 AM
10.42.0.151-68.67.178.176-42952-443-6,Mexico,Mexico City,19.43,-99.13,America/Mexico_City,30-08-23 17:45,24,75.2,1,37.1,39,75,24.5,76.2,167.4,6:21 AM,6:53 PM,7:00 PM,5:48 AM
10.42.0.1-10.42.0.42-53-58923-17,Micronesia,Palikir,6.92,158.15,Pacific/Pohnpei,31-08-23 10:45,29,84.2,0,6.1,79,100,33.6,92.4,13.2,6:20 AM,6:36 PM,6:01 PM,5:12 AM
163.177.151.166-10.42.0.211-443-43422-6,Russia,Chi-Chi-Erh,51.7,94.45,Asia/Krasnoyarsk,31-08-23 6:45,19.7,67.5,1,6.5,59,48,19.7,67.5,7.4,5:50 AM,7:35 PM,7:45 PM,3:56 AM
10.42.0.211-104.254.66.16-48280-80-6,Monaco,Monaco,43.73,7.42,Europe/Monaco,31-08-23 1:45,20,68,1,13,73,0,20,68,55.1,6:51 AM,8:10 PM,8:18 PM,5:34 AM
174.35.73.174-10.42.0.211-80-59282-6,Mongolia,Ulaanbaatar,47.92,106.92,Asia/Ulaanbaatar,31-08-23 7:45,10,50,0,3.6,82,25,8.8,47.9,70.1,6:07 AM,7:39 PM,7:43 PM,4:18 AM
172.217.3.110-10.42.0.42-443-60015-6,Montenegro,Podgorica,42.44,19.26,Europe/Podgorica,31-08-23 1:45,19,66.2,1,11.2,94,75,19,66.2,73,6:05 AM,7:21 PM,7:27 PM,4:47 AM
10.42.0.42-104.254.66.16-38211-80-6,Morocco,Rabat,34.03,-6.84,Africa/Casablanca,31-08-23 0:45,18,64.4,1,3.6,94,75,18,64.4,107.3,6:59 AM,7:56 PM,7:59 PM,5:57 AM
172.217.6.238-10.42.0.151-443-42647-6,Mozambique,Maputo,-25.97,32.59,Africa/Maputo,31-08-23 1:45,17,62.6,1,6.1,88,0,17,62.6,39,6:05 AM,5:37 PM,5:03 PM,5:43 AM
10.42.0.151-10.42.0.1-57560-5351-17,Myanmar,Pathein,16.78,94.73,Asia/Yangon,31-08-23 6:15,25.5,77.9,1,5.8,93,60,28.8,83.8,22,5:57 AM,6:26 PM,6:07 PM,4:51 AM
10.42.0.211-10.42.0.1-36503-53-17,Namibia,Windhoek,-22.57,17.08,Africa/Windhoek,31-08-23 1:45,16,60.8,0,6.8,42,0,16,60.8,45.1,7:04 AM,6:41 PM,6:12 PM,6:41 AM
10.42.0.211-64.71.142.110-44127-443-6,Turkey,Yaren,39.55,27.62,Europe/Istanbul,31-08-23 2:45,23,73.4,1,6.8,61,0,25,77,45.1,6:35 AM,7:45 PM,7:47 PM,5:19 AM
10.42.0.211-10.42.0.1-63569-53-17,Nepal,Kathmandu,27.72,85.32,Asia/Kathmandu,31-08-23 5:30,22,71.6,1,3.6,94,75,24.5,76.1,7.9,5:42 AM,6:27 PM,6:16 PM,4:26 AM
10.42.0.211-50.18.248.150-51942-443-6,Netherlands,Amsterdam,52.37,4.89,Europe/Amsterdam,31-08-23 1:45,13,55.4,1,15.1,88,25,11.6,52.9,49.4,6:48 AM,8:33 PM,8:49 PM,5:15 AM
10.42.0.211-106.11.129.143-45315-80-6,New Zealand,Wellington,-41.3,174.78,Pacific/Auckland,31-08-23 11:45,14,57.2,1,37.1,72,75,11.4,52.5,59.4,6:50 AM,5:54 PM,4:35 PM,6:30 AM
172.217.12.206-10.42.0.211-443-46791-6,Nicaragua,Managua,12.15,-86.27,America/Managua,30-08-23 17:45,34,93.2,1,11.2,56,25,48.3,119,62.9,5:35 AM,5:57 PM,6:00 PM,5:04 AM
10.42.0.211-114.134.80.163-57174-443-6,Niger,Niamey,13.52,2.12,Africa/Niamey,31-08-23 0:45,24,75.2,0,15.1,83,0,25.7,78.2,23.6,6:40 AM,7:04 PM,6:56 PM,5:53 AM
180.149.136.194-10.42.0.211-80-43791-6,Nigeria,Abuja,9.18,7.18,Africa/Lagos,31-08-23 0:45,24,75.2,0,4,94,25,26.8,80.2,14.5,6:23 AM,6:41 PM,6:30 PM,5:38 AM
203.130.53.126-10.42.0.211-80-39094-6,North Korea,Pyongyang,39.02,125.75,Asia/Pyongyang,31-08-23 8:45,20.1,68.2,0,3.6,87,31,20.1,68.2,4.8,6:03 AM,7:12 PM,7:05 PM,4:26 AM
157.240.18.19-10.42.0.211-443-58443-6,Macedonia,Skopje,42,21.43,Europe/Skopje,31-08-23 1:45,19,66.2,1,6.1,68,25,19,66.2,20,5:57 AM,7:12 PM,7:17 PM,4:39 AM
10.42.0.211-98.139.183.24-36243-80-6,Norway,Oslo,59.92,10.75,Europe/Oslo,31-08-23 1:45,13,55.4,1,22,94,75,13.2,55.8,15.4,6:06 AM,8:27 PM,8:53 PM,4:09 AM
172.217.12.170-10.42.0.151-443-55343-6,Oman,Muscat,23.61,58.59,Asia/Muscat,31-08-23 3:45,29,84.2,0,3.6,94,25,35.5,95.8,55.8,5:47 AM,6:26 PM,6:15 PM,4:41 AM
10.42.0.211-123.125.115.164-42266-443-6,Pakistan,Islamabad,33.7,73.17,Asia/Karachi,31-08-23 4:45,25.7,78.3,1,10.1,55,11,26.6,79.9,47.2,5:40 AM,6:36 PM,6:30 PM,4:20 AM
10.42.0.1-10.42.0.42-53-6913-17,Palau,Adkip,7.36,134.51,Pacific/Palau,31-08-23 8:45,29,84.2,1,9,79,75,35,95.1,4.7,5:55 AM,6:11 PM,5:40 PM,4:49 AM
209.10.120.26-10.42.0.211-80-40082-6,Bolivia,National,-11.18,-67.08,America/La_Paz,30-08-23 19:45,31.1,88,0,3.6,40,15,31.5,88.7,12.3,6:33 AM,6:25 PM,6:17 PM,6:13 AM
172.217.6.206-10.42.0.151-443-51732-6,Panama,Panama City,8.97,-79.53,America/Panama,30-08-23 18:45,30,86,0,28.1,84,50,39,102.3,50.8,6:10 AM,6:27 PM,6:28 PM,5:40 AM
10.42.0.211-112.80.248.220-43804-443-6,Papua New Guinea,Port Moresby,-9.46,147.19,Pacific/Port_Moresby,31-08-23 9:45,27,80.6,0,28.1,62,0,28.6,83.5,53.6,6:15 AM,6:09 PM,5:26 PM,5:22 AM
172.217.6.202-10.42.0.211-443-37661-6,Paraguay,Carreria,-21.55,-58.12,America/Asuncion,30-08-23 19:45,29.2,84.6,0,4,37,23,28.9,84,35.4,6:04 AM,5:43 PM,5:29 PM,5:50 AM
10.42.0.211-104.94.222.37-36014-80-6,Peru,Lima,-12.05,-77.05,America/Lima,30-08-23 18:45,18.7,65.7,1,17.6,79,51,18.7,65.7,49.4,6:13 AM,6:05 PM,5:58 PM,5:56 AM
203.205.158.61-10.42.0.42-80-46305-6,Philippines,Manila,14.6,120.98,Asia/Manila,31-08-23 7:45,25,77,1,3.6,100,100,27.5,81.6,47.9,5:44 AM,6:10 PM,5:46 PM,4:34 AM
10.42.0.211-10.42.0.1-55559-53-17,Poland,Warsaw,52.25,21,Europe/Warsaw,31-08-23 1:45,16,60.8,0,11.2,94,75,16,60.8,51.5,5:44 AM,7:29 PM,7:44 PM,4:07 AM
10.42.0.211-77.234.42.92-54716-443-6,Portugal,Lisbon,38.72,-9.13,Europe/Lisbon,31-08-23 0:45,19,66.2,0,22,78,25,19,66.2,86.6,7:04 AM,8:10 PM,8:16 PM,5:57 AM
192.229.173.173-10.42.0.211-443-48497-6,Qatar,Doha,25.29,51.53,Asia/Qatar,31-08-23 2:45,34,93.2,0,6.8,67,0,42.3,108.1,111.6,5:14 AM,5:55 PM,5:47 PM,4:08 AM
10.42.0.211-106.11.30.199-37175-80-6,Romania,Bucharest,44.43,26.1,Europe/Bucharest,31-08-23 2:45,20,68,0,6.1,94,50,20,68,4.5,6:35 AM,7:57 PM,8:03 PM,5:13 AM
174.35.73.135-10.42.0.211-80-41943-6,Russia,Moscow,55.75,37.62,Europe/Moscow,31-08-23 2:45,13,55.4,0,6.8,88,0,12.6,54.7,3.3,5:30 AM,7:30 PM,7:48 PM,3:39 AM
239.255.255.250-10.42.0.1-1900-33817-17,Rwanda,Kigali,-1.95,30.06,Africa/Kigali,31-08-23 1:45,20,68,1,6.8,56,25,20,68,23.6,5:59 AM,6:03 PM,5:43 PM,5:18 AM
216.58.219.226-10.42.0.211-443-44824-6,Saint Kitts and Nevis,Basseterre,17.3,-62.72,America/St_Kitts,30-08-23 19:45,29,84.2,0,19.1,79,25,34.3,93.7,25.8,5:57 AM,6:26 PM,6:27 PM,5:19 AM
10.42.0.211-98.139.183.24-40209-443-6,Saint Lucia,Castries,14,-61,America/St_Lucia,30-08-23 19:45,28,82.4,1,13,84,50,32.3,90.2,25.8,5:52 AM,6:17 PM,6:17 PM,5:16 AM
10.42.0.151-10.42.0.1-36078-53-17,Saint Vincent and the Grenadines,Kingstown,13.13,-61.22,America/St_Vincent,30-08-23 19:45,28.9,84,0,25.6,78,79,34.1,93.4,25.4,5:54 AM,6:17 PM,6:17 PM,5:18 AM
10.42.0.211-10.42.0.1-27101-53-17,Samoa,Apia,-13.83,-171.73,Pacific/Apia,31-08-23 12:45,29,84.2,0,11.2,75,75,34.4,93.8,55.1,6:33 AM,6:22 PM,5:28 PM,5:39 AM
202.77.129.150-10.42.0.211-443-39759-6,San Marino,San Marino,43.93,12.45,Europe/Rome,31-08-23 1:45,17,62.6,1,3.6,83,0,17,62.6,67.2,6:31 AM,7:50 PM,7:58 PM,5:12 AM
182.254.5.234-10.42.0.211-80-47922-6,Belgium,'S-Gravenwezel,51.27,4.55,Europe/Brussels,31-08-23 1:45,11,51.8,1,9,94,0,9.9,49.9,46.5,6:51 AM,8:33 PM,8:47 PM,5:21 AM
10.42.0.1-10.42.0.42-53-29497-17,Saudi Arabia,Riyadh,24.64,46.77,Asia/Riyadh,31-08-23 2:45,31,87.8,1,6.1,22,0,30.2,86.4,144.5,5:33 AM,6:14 PM,6:05 PM,4:29 AM
172.217.10.142-10.42.0.151-443-39795-6,Senegal,Dakar,14.67,-17.44,Africa/Dakar,30-08-23 23:45,27,80.6,0,25.9,89,25,30.5,86.8,31.1,6:57 AM,7:23 PM,7:18 PM,6:13 AM
10.42.0.151-103.43.91.10-55775-443-6,Serbia,Belgrade,44.8,20.47,Europe/Belgrade,31-08-23 1:45,16,60.8,0,11.2,100,0,16,60.8,35.1,5:58 AM,7:20 PM,7:27 PM,4:35 AM
10.42.0.151-119.146.74.49-45242-443-6,Seychelles Islands,Victoria,-4.62,55.45,Indian/Mahe,31-08-23 3:45,26,78.8,0,16.9,79,50,28.4,83.2,37.2,6:18 AM,6:19 PM,5:54 PM,5:36 AM
172.217.9.234-10.42.0.151-443-38733-6,Sierra Leone,Freetown,8.49,-13.23,Africa/Freetown,30-08-23 23:45,27,80.6,0,6.8,84,50,31.3,88.4,21.8,6:45 AM,7:02 PM,6:54 PM,6:04 AM
10.42.0.211-10.42.0.1-44407-53-17,Singapore,Singapore,1.29,103.86,Asia/Singapore,31-08-23 7:45,28,82.4,0,6.8,79,75,31.9,89.5,1.5,7:01 AM,7:10 PM,6:39 PM,6:06 AM
10.42.0.211-27.221.21.166-56073-80-6,Slovakia,Bratislava,48.15,17.12,Europe/Bratislava,31-08-23 1:45,15,59,1,6.8,88,0,14.8,58.7,45.8,6:06 AM,7:38 PM,7:49 PM,4:39 AM
216.58.219.226-10.42.0.211-443-42080-6,Slovenia,Ljubljana,46.06,14.51,Europe/Ljubljana,31-08-23 1:45,14,57.2,0,6.1,100,75,14.7,58.4,28.6,6:19 AM,7:45 PM,7:54 PM,4:57 AM
172.217.12.163-10.42.0.151-443-36459-6,Solomon Islands,Honiara,-9.43,159.95,Pacific/Guadalcanal,31-08-23 10:45,28,82.4,1,3.6,84,75,34.4,93.8,34,6:24 AM,6:18 PM,5:33 PM,5:29 AM
10.42.0.211-10.42.0.1-52018-53-17,Somalia,Mogadishu,2.07,45.37,Africa/Mogadishu,31-08-23 2:45,24.2,75.6,1,20.9,84,48,26.3,79.3,38.3,5:55 AM,6:04 PM,5:44 PM,5:09 AM
172.217.10.35-10.42.0.151-443-40224-6,South Africa,Pretoria,-25.75,28.19,Africa/Johannesburg,31-08-23 1:45,13,55.4,1,9,51,0,12.9,55.2,15.9,6:22 AM,5:54 PM,5:22 PM,6:00 AM
10.42.0.151-52.84.145.106-47582-443-6,South Korea,Seoul,37.57,127,Asia/Seoul,31-08-23 8:45,22,71.6,0,4,94,75,24.5,76.1,0.1,6:00 AM,7:05 PM,6:57 PM,4:24 AM
10.42.0.211-66.102.255.50-35708-443-6,Sudan,Juba,12.15,24.45,Africa/Khartoum,31-08-23 1:45,20.9,69.6,0,10.1,89,62,20.9,69.6,14.8,6:11 AM,6:34 PM,6:21 PM,5:22 AM
10.42.0.151-119.146.74.33-50168-443-6,Spain,Madrid,40.4,-3.68,Europe/Madrid,31-08-23 1:45,21,69.8,1,3.6,40,0,21,69.8,60.1,7:40 AM,8:50 PM,8:57 PM,6:29 AM
182.22.24.124-10.42.0.211-443-53950-6,Sri Lanka,Colombo,6.93,79.85,Asia/Colombo,31-08-23 5:15,26,78.8,0,15.1,94,50,29.2,84.6,36.8,6:04 AM,6:19 PM,5:56 PM,5:08 AM
10.42.0.211-77.234.44.41-47574-80-6,Sudan,Khartoum,15.59,32.53,Africa/Khartoum,31-08-23 1:45,28.7,83.7,0,27.4,50,30,29.7,85.5,37.9,5:37 AM,6:04 PM,5:52 PM,4:43 AM
172.217.10.234-10.42.0.42-443-45407-6,Suriname,Paramaribo,5.83,-55.17,America/Paramaribo,30-08-23 20:45,29,84.2,0,15.1,79,25,35.5,96,22.4,6:34 AM,6:48 PM,6:44 PM,6:02 AM
10.42.0.211-98.139.199.205-44414-443-6,Sweden,Stockholm,59.33,18.05,Europe/Stockholm,31-08-23 1:45,11,51.8,0,6.8,100,0,10.1,50.2,32.5,5:39 AM,7:57 PM,8:21 PM,3:42 AM
10.42.0.211-66.231.239.120-41817-443-6,Switzerland,Bern,46.92,7.47,Europe/Zurich,31-08-23 1:45,13,55.4,0,3.6,88,100,12.7,54.8,8.5,6:46 AM,8:14 PM,8:24 PM,5:24 AM
172.217.3.106-10.42.0.211-443-44603-6,Syria,Damascus,33.5,36.3,Asia/Damascus,31-08-23 2:45,23,73.4,1,16.9,61,0,24.5,76,46.5,6:07 AM,7:03 PM,7:01 PM,4:56 AM
172.217.12.195-10.42.0.211-443-49633-6,Tajikistan,Dushanbe,38.56,68.77,Asia/Dushanbe,31-08-23 4:45,24,75.2,0,11.2,44,50,24.5,76.1,31.5,5:52 AM,6:59 PM,6:57 PM,4:28 AM
203.205.158.35-10.42.0.151-80-60741-6,Tanzania,Dodoma,-6.18,35.75,Africa/Dar_es_Salaam,31-08-23 2:45,18.9,66,0,14.8,61,8,18.9,66,32.5,6:38 AM,6:37 PM,6:14 PM,6:00 AM
10.42.0.211-10.42.0.1-33165-53-17,Thailand,Bangkok,13.75,100.52,Asia/Bangkok,31-08-23 6:45,27,80.6,1,6.1,94,50,31.4,88.6,0,6:06 AM,6:31 PM,6:09 PM,5:02 AM
172.217.3.106-10.42.0.151-443-55804-6,Indonesia,Murong Timor,-7.56,112.27,Asia/Jakarta,31-08-23 6:45,20.8,69.4,0,9.4,88,5,20.8,69.4,16.3,5:34 AM,5:31 PM,4:54 PM,4:44 AM
10.42.0.211-66.198.24.224-54375-443-6,Bulgaria,Lom,43.81,23.24,Europe/Bucharest,31-08-23 2:45,22.8,73,0,7.9,42,45,24.4,75.9,21.8,6:48 AM,8:07 PM,8:13 PM,5:27 AM
10.42.0.211-10.42.0.1-55173-53-17,Tonga,Nuku`Aloia,-21.13,-175.2,Pacific/Tongatapu,31-08-23 12:45,26,78.8,1,25.9,65,50,27.6,81.7,67.2,6:53 AM,6:31 PM,5:32 PM,6:05 AM
172.217.12.174-10.42.0.42-443-35182-6,Trinidad and Tobago,Port Of Spain,10.65,-61.52,America/Port_of_Spain,30-08-23 19:45,29,84.2,0,6.8,79,25,37.4,99.4,7.2,5:57 AM,6:17 PM,6:15 PM,5:23 AM
192.229.173.173-10.42.0.211-80-42618-6,Tunisia,Tunis,36.8,10.18,Africa/Tunis,31-08-23 0:45,24,75.2,0,3.6,78,25,25.8,78.4,68,5:49 AM,6:51 PM,6:54 PM,4:39 AM
10.42.0.211-66.231.239.125-42525-443-6,Turkey,Ankara,39.93,32.86,Europe/Istanbul,31-08-23 2:45,21,69.8,1,3.6,40,0,21,69.8,7.9,6:14 AM,7:24 PM,7:27 PM,4:56 AM
203.205.158.62-10.42.0.42-80-41446-6,Turkmenistan,Ashgabat,37.95,58.38,Asia/Ashgabat,31-08-23 4:45,19,66.2,1,4,56,0,19,66.2,42.9,6:34 AM,7:40 PM,7:39 PM,5:13 AM
10.42.0.211-10.42.0.1-61211-53-17,Tuvalu,Funafuti,-8.52,179.22,Pacific/Funafuti,31-08-23 11:45,33,91.4,0,11.2,80,75,46,114.8,24.7,6:06 AM,6:02 PM,5:14 PM,5:08 AM
10.42.0.211-106.11.94.27-39159-443-6,Uganda,Kampala,0.32,32.57,Africa/Kampala,31-08-23 2:45,20,68,0,6.8,94,25,20,68,4.7,6:47 AM,6:54 PM,6:34 PM,6:04 AM
10.42.0.211-74.119.118.71-52108-443-6,Ukraine,Lviv,49.83,24,Europe/Kiev,31-08-23 2:45,15.8,60.4,0,9.7,95,81,15.8,60.4,21.8,6:35 AM,8:13 PM,8:25 PM,5:04 AM
10.42.0.211-23.208.168.108-60937-443-6,United Arab Emirates,Abu Dhabi,24.47,54.37,Asia/Dubai,31-08-23 3:45,33,91.4,1,3.6,63,0,39.9,103.8,70.8,6:03 AM,6:43 PM,6:33 PM,4:57 AM
10.42.0.211-123.125.29.220-47165-80-6,United Kingdom,London,51.52,-0.11,Europe/London,31-08-23 0:45,13,55.4,0,3.6,77,100,13.2,55.8,26.8,6:09 AM,7:52 PM,8:07 PM,4:40 AM
216.58.219.234-10.42.0.151-443-33406-6,United States of America,Washington Park,46.6,-120.49,America/Los_Angeles,30-08-23 16:45,26.7,80.1,0,24.1,28,0,26.4,79.5,73.7,6:19 AM,7:45 PM,8:04 PM,5:29 AM
172.217.12.206-10.42.0.151-443-34075-6,Uruguay,Montevideo,-34.86,-56.17,America/Montevideo,30-08-23 20:45,15,59,0,6.1,72,0,14.6,58.2,46.5,7:07 AM,6:24 PM,6:03 PM,7:03 AM
203.90.242.126-10.42.0.42-443-43476-6,Uzbekistan,Tashkent,41.32,69.25,Asia/Tashkent,31-08-23 4:45,19,66.2,1,6.8,83,37,19,66.2,20.2,5:47 AM,7:00 PM,7:01 PM,4:18 AM
158.85.58.124-10.42.0.151-5222-59476-6,Vanuatu,Port Vila,-17.73,168.32,Pacific/Efate,31-08-23 10:45,28,82.4,0,9,79,75,33.7,92.6,55.1,5:56 AM,5:40 PM,4:46 PM,5:08 AM
10.42.0.151-10.42.0.1-49458-53-17,Venezuela,Caracas,10.5,-66.92,America/Caracas,30-08-23 19:45,30,86,0,4,62,50,38,100.5,7.3,6:18 AM,6:38 PM,6:38 PM,5:46 AM
198.105.244.11-10.42.0.211-80-34802-6,Vietnam,Hanoi,21.03,105.85,Asia/Bangkok,31-08-23 6:45,25,77,1,6.1,89,0,27,80.5,0.6,5:40 AM,6:15 PM,5:57 PM,4:27 AM
10.42.0.211-10.42.0.1-23679-53-17,Yemen,Sanaa,15.35,44.21,Asia/Aden,31-08-23 2:45,17.8,64,0,6.1,53,47,17.8,64,50.1,5:51 AM,6:17 PM,6:04 PM,4:54 AM
10.42.0.211-123.125.46.33-47558-80-6,Zambia,Lusaka,-15.42,28.28,Africa/Lusaka,31-08-23 1:45,15.1,59.2,0,9.4,42,0,15.1,59.2,44.7,6:14 AM,6:01 PM,5:35 PM,5:44 AM
172.217.10.46-10.42.0.42-443-48987-6,Zimbabwe,Harare,-17.82,31.04,Africa/Harare,31-08-23 1:45,11.2,52.2,0,11.2,64,18,9.8,49.6,29.7,6:05 AM,5:49 PM,5:20 PM,5:36 AM
10.42.0.211-123.134.184.160-44605-80-6,Afghanistan,Kabul,34.52,69.18,Asia/Kabul,01-09-23 4:15,19.2,66.6,1,3.6,49,5,19.2,66.6,45.4,5:26 AM,6:21 PM,6:52 PM,5:22 AM
10.42.0.211-31.13.80.5-57844-443-6,Albania,Tirana,41.33,19.82,Europe/Tirane,01-09-23 1:30,17,62.6,0,6.1,88,0,17,62.6,54.4,6:06 AM,7:16 PM,7:50 PM,6:10 AM
10.42.0.211-106.11.94.6-58297-443-6,Algeria,Algiers,36.76,3.05,Africa/Algiers,01-09-23 0:45,22,71.6,0,6.8,78,25,24.6,76.2,72.2,6:17 AM,7:18 PM,7:54 PM,6:27 AM
10.42.0.211-65.52.108.74-60952-443-6,Andorra,Andorra La Vella,42.5,1.52,Europe/Andorra,01-09-23 1:45,8.1,46.6,0,3.6,88,17,8.1,46.6,45.4,7:18 AM,8:30 PM,9:06 PM,7:26 AM
157.240.2.36-10.42.0.42-443-58303-6,Angola,Luanda,-8.84,13.23,Africa/Luanda,01-09-23 0:45,21,69.8,1,3.6,94,25,21,69.8,42.6,6:09 AM,6:05 PM,6:43 PM,6:28 AM
172.217.3.98-10.42.0.211-443-47772-6,Antigua and Barbuda,Saint John's,17.12,-61.85,America/Antigua,31-08-23 19:45,29,84.2,1,13,75,25,33.9,93.1,29.3,5:54 AM,6:21 PM,7:08 PM,6:19 AM
203.205.190.44-10.42.0.211-80-40151-6,Argentina,Buenos Aires,-34.59,-58.67,America/Argentina/Buenos_Aires,31-08-23 20:30,12,53.6,1,13,62,0,11,51.7,34.7,7:15 AM,6:35 PM,7:28 PM,7:48 AM
224.0.0.251-10.42.0.42-5353-5353-17,Armenia,Yerevan,40.18,44.51,Asia/Yerevan,01-09-23 3:45,24,75.2,1,9,36,0,25.2,77.4,40.4,6:28 AM,7:36 PM,8:08 PM,6:27 AM
180.76.157.91-10.42.0.211-80-42191-6,Australia,Canberra,-35.28,149.22,Australia/Sydney,01-09-23 9:45,11,51.8,0,24.1,50,0,9.5,49.2,20,6:25 AM,5:43 PM,5:53 PM,6:37 AM
198.105.244.11-10.42.0.211-80-43554-6,Austria,Vienna,48.2,16.37,Europe/Vienna,01-09-23 1:45,16,60.8,1,6.8,77,0,16,60.8,39.7,6:10 AM,7:39 PM,8:12 PM,6:12 AM
172.217.11.46-10.42.0.211-443-44402-6,Azerbaijan,Baku,40.4,49.88,Asia/Baku,01-09-23 3:45,23,73.4,1,6.8,73,25,24.9,76.8,41.5,6:06 AM,7:15 PM,7:47 PM,6:04 AM
10.42.0.151-123.125.46.11-46460-80-6,Bahamas,Nassau,25.08,-77.35,America/Nassau,31-08-23 19:30,31,87.8,1,11.2,79,50,42.6,108.7,41.8,6:50 AM,7:30 PM,8:15 PM,7:18 AM
10.42.0.211-68.67.178.110-37718-443-6,Bahrain,Manama,26.24,50.58,Asia/Bahrain,01-09-23 2:45,34,93.2,1,20.2,60,0,41.7,107.1,154.5,5:17 AM,5:59 PM,6:31 PM,5:21 AM
174.35.73.108-10.42.0.42-443-38229-6,Bangladesh,Dhaka,23.72,90.41,Asia/Dhaka,01-09-23 5:45,28.2,82.8,0,11.2,82,80,33.1,91.6,35.8,5:40 AM,6:18 PM,6:45 PM,5:37 AM
10.42.0.211-10.42.0.1-27212-53-17,Barbados,Bridgetown,13.1,-59.62,America/Barbados,31-08-23 19:45,28,82.4,1,20.2,79,25,31.4,88.6,40.1,5:48 AM,6:10 PM,6:57 PM,6:13 AM
10.42.0.211-54.243.32.68-41556-443-6,Belarus,Minsk,53.9,27.57,Europe/Minsk,01-09-23 2:45,13,55.4,1,6.8,100,25,12.3,54.2,24,6:15 AM,8:03 PM,8:35 PM,6:11 AM
10.42.0.211-121.196.192.72-32988-9920-6,Belgium,Brussels,50.83,4.33,Europe/Brussels,01-09-23 1:45,14,57.2,1,6.8,94,75,13.6,56.4,65.1,6:54 AM,8:31 PM,9:04 PM,6:58 AM
172.217.12.202-10.42.0.211-443-34530-6,Belize,Belmopan,17.25,-88.77,America/Belize,31-08-23 17:45,30,86,1,6.1,79,25,37.3,99.2,13.4,5:41 AM,6:09 PM,6:59 PM,6:12 AM
10.42.0.42-91.190.219.41-33662-12350-6,Benin,Porto-Novo,6.48,2.62,Africa/Porto-Novo,01-09-23 0:45,26,78.8,1,9,89,25,29.6,85.2,32.2,6:42 AM,6:57 PM,7:36 PM,7:00 AM
172.217.10.142-10.42.0.42-443-48612-6,Bhutan,Thimphu,27.48,89.6,Asia/Thimphu,01-09-23 5:45,12.3,54.1,1,3.6,96,71,12.3,54.1,34,5:40 AM,6:24 PM,6:52 PM,5:36 AM
172.217.9.226-10.42.0.151-443-49476-6,Bolivia,Sucre,-19.04,-65.26,America/La_Paz,31-08-23 19:45,10.8,51.4,1,3.6,82,88,10.8,51.4,7.2,6:30 AM,6:13 PM,7:05 PM,7:01 AM
198.105.244.11-10.42.0.211-80-40845-6,Bosnia and Herzegovina,Sarajevo,43.85,18.38,Europe/Sarajevo,01-09-23 1:30,16,60.8,1,6.1,100,75,16,60.8,25.8,6:08 AM,7:25 PM,7:59 PM,6:12 AM
